{
	"code": 200,
	"status": "SUCCESS",
	"data": {
		"fpstores": [
			{
				"active": 1,
				"address": "Blk 447A Jalan Kayu, #01-01/02, 791447 ",
				"address1": "#01-01/02,447A Jalan Kayu,791447",
				"address2": "",
				"address3": "#01-01/02",
				"fax": "",
				"fromTime": "00:00:00",
				"fromTimeExtra": "00:00:00",
				"id": "4",
				"identifier": "470",
				"is24Hour": false,
				"isCAC": false,
				"isFullWeek": true,
				"isSAG": true,
				"isStore": false,
				"lat": 1.39222,
				"long": 103.87261,
				"name": "Jalan Kayu",
				"phone": "+6564443216",
				"postalCode": "791447",
				"serviceType": "STL",
				"sngBusinessHours": "",
				"storeType": "FairPrice",
				"toTime": "23:59:59",
				"toTimeExtra": "23:59:59",
				"zoneId": "North-East"
			},
			{
				"active": 1,
				"address": "30 East Coast Road Katong Village Hotel #01-06/07/08/09, 428751",
				"address1": "#01-06/07/08/09,Katong Village Hotel,30 East Coast Road,428751",
				"address2": "Katong Village Hotel",
				"address3": "#01-06/07/08/09",
				"fax": "63421371",
				"fromTime": "08:00:00",
				"fromTimeExtra": "08:00:00",
				"id": "5",
				"identifier": "471",
				"is24Hour": false,
				"isCAC": false,
				"isFullWeek": true,
				"isSAG": true,
				"isStore": false,
				"lat": 1.30378,
				"long": 103.90291,
				"name": "Katong Village Hotel",
				"phone": "+6563421242",
				"postalCode": "428751",
				"serviceType": "STL",
				"sngBusinessHours": "",
				"storeType": "FairPrice Finest",
				"toTime": "23:00:00",
				"toTimeExtra": "23:00:00",
				"zoneId": "East"
			},
			{
				"active": 1,
				"address": "Blk 808 French Road, #01-01, 200808",
				"address1": "#01,blk 808, French Rd, 01, Singapore 200808",
				"address2": "",
				"address3": "#01-13",
				"fax": "",
				"fromTime": "07:00:00",
				"fromTimeExtra": "07:00:00",
				"id": "6",
				"identifier": "472",
				"is24Hour": false,
				"isCAC": false,
				"isFullWeek": true,
				"isSAG": true,
				"isStore": false,
				"lat": 1.30848,
				"long": 103.86201,
				"name": "Kitchener Complex",
				"phone": "+6562949535",
				"postalCode": "200808",
				"serviceType": "STL",
				"sngBusinessHours": "",
				"storeType": "FairPrice",
				"toTime": "23:00:00",
				"toTimeExtra": "23:00:00",
				"zoneId": "Central"
			},
			{
				"active": 1,
				"address": "311 New Upper Changi Road #B2-60, Bedok Mall, 467360 ",
				"address1": "#B2-60,Bedok Mall,311 New Upper Changi Road,467360",
				"address2": "Bedok Mall",
				"address3": "#B2-60",
				"fax": "68449845",
				"fromTime": "08:00:00",
				"fromTimeExtra": "08:00:00",
				"id": "7",
				"identifier": "473",
				"is24Hour": false,
				"isCAC": false,
				"isFullWeek": true,
				"isSAG": true,
				"isStore": false,
				"lat": 1.3245826944195,
				"long": 103.9286684523011,
				"name": "Bedok Mall",
				"phone": "+6568449846",
				"postalCode": "467360",
				"serviceType": "STL",
				"sngBusinessHours": "",
				"storeType": "FairPrice Finest",
				"toTime": "23:00:00",
				"toTimeExtra": "23:00:00",
				"zoneId": "East"
			},
			{
				"active": 1,
				"address": "1 Lower Kent Ridge Road, #02-16 NUH Medical Centre, 119082",
				"address1": "#02-16,NUH Medical Centre,1 Lower Kent Ridge Road,119082",
				"address2": "NUH Medical Centre",
				"address3": "#02-16",
				"fax": "",
				"fromTime": "09:00:00",
				"fromTimeExtra": "09:00:00",
				"id": "8",
				"identifier": "474",
				"is24Hour": false,
				"isCAC": false,
				"isFullWeek": true,
				"isSAG": true,
				"isStore": false,
				"lat": 1.29644,
				"long": 103.78341,
				"name": "NUH Medical Centre",
				"phone": "+6566844052",
				"postalCode": "119082",
				"serviceType": "STL",
				"sngBusinessHours": "",
				"storeType": "FairPrice",
				"toTime": "22:00:00",
				"toTimeExtra": "22:00:00",
				"zoneId": "West"
			},
			{
				"active": 1,
				"address": "33 Sengkang West Avenue #B2-24 Seletar Mall, 797653 ",
				"address1": "#B2-24,Seletar Mall,33 Sengkang W Ave,797653",
				"address2": "Seletar Mall",
				"address3": "#B2-24",
				"fax": "63416178",
				"fromTime": "00:00:00",
				"fromTimeExtra": "00:00:00",
				"id": "10",
				"identifier": "480",
				"is24Hour": false,
				"isCAC": true,
				"isFullWeek": true,
				"isSAG": true,
				"isStore": false,
				"lat": 1.3916,
				"long": 103.87619,
				"name": "The Seletar Mall",
				"phone": "+6563416177",
				"postalCode": "797653",
				"serviceType": "STL",
				"sngBusinessHours": "",
				"storeType": "FairPrice Finest",
				"toTime": "23:59:59",
				"toTimeExtra": "23:59:59",
				"zoneId": "North-East"
			},
			{
				"active": 1,
				"address": "1 Joo Koon Circle, Level 3,629117",
				"address1": "1 Joo Koon Circle, Level 3,629117",
				"address2": "",
				"address3": "",
				"fax": "67104594",
				"fromTime": "09:00:00",
				"fromTimeExtra": "09:00:00",
				"id": "11",
				"identifier": "478",
				"is24Hour": false,
				"isCAC": true,
				"isFullWeek": true,
				"isSAG": false,
				"isStore": false,
				"lat": 1.32765,
				"long": 103.6743,
				"name": "Warehouse Club",
				"phone": "+6567104584",
				"postalCode": "629117",
				"serviceType": "STL",
				"sngBusinessHours": "",
				"storeType": "Warehouse Club",
				"toTime": "22:00:00",
				"toTimeExtra": "22:00:00",
				"zoneId": "West"
			},
			{
				"active": 1,
				"address": "63 Jurong Central 3, #03-01 Jurong Point, 648331",
				"address1": "#03-01,Jurong Point,63 Jurong West Central 3,648331",
				"address2": "Jurong Point",
				"address3": "#03-01",
				"fax": "67901765",
				"fromTime": "00:00:00",
				"fromTimeExtra": "00:00:00",
				"id": "12",
				"identifier": "434",
				"is24Hour": false,
				"isCAC": false,
				"isFullWeek": true,
				"isSAG": true,
				"isStore": false,
				"lat": 1.33958,
				"long": 103.70596,
				"name": "Jurong Point (JP2)",
				"phone": "+6567901477",
				"postalCode": "648331",
				"serviceType": "STL",
				"sngBusinessHours": "",
				"storeType": "FairPrice Xtra",
				"toTime": "23:59:59",
				"toTimeExtra": "23:59:59",
				"zoneId": "West"
			},
			{
				"active": 1,
				"address": "30 Sembawang Drive, #B1-01/02 Sun Plaza, 757713",
				"address1": "",
				"address2": "",
				"address3": "",
				"fax": "65551187",
				"fromTime": "08:00:00",
				"fromTimeExtra": "08:00:00",
				"id": "13",
				"identifier": "355",
				"is24Hour": false,
				"isCAC": false,
				"isFullWeek": true,
				"isSAG": false,
				"isStore": false,
				"lat": 1.44842,
				"long": 103.81917,
				"name": "Sun Plaza (FFS)",
				"phone": "+6565551180",
				"postalCode": "757713",
				"serviceType": "",
				"sngBusinessHours": "",
				"storeType": "FairPrice",
				"toTime": "23:00:00",
				"toTimeExtra": "23:00:00",
				"zoneId": "North"
			},
			{
				"active": 1,
				"address": "83 Punggol Central #B2-32  Waterway Point, 828761 ",
				"address1": "#B2-32,Waterway Point,83 Punggol Central,828761",
				"address2": "Waterway Point",
				"address3": "#B2-32",
				"fax": "63858961",
				"fromTime": "00:00:00",
				"fromTimeExtra": "00:00:00",
				"id": "14",
				"identifier": "484",
				"is24Hour": false,
				"isCAC": false,
				"isFullWeek": true,
				"isSAG": true,
				"isStore": false,
				"lat": 1.40642,
				"long": 103.9022,
				"name": "Waterway Point",
				"phone": "+6563858959",
				"postalCode": "828761",
				"serviceType": "STL",
				"sngBusinessHours": "",
				"storeType": "FairPrice Finest",
				"toTime": "23:59:59",
				"toTimeExtra": "23:59:59",
				"zoneId": "North-East"
			},
			{
				"active": 1,
				"address": "Blk 574 Ang Mo Kio Ave 10, #01-1847, 560574",
				"address1": "#01-1847,Blk 574 Ang Mo Kio Ave 10,560574",
				"address2": "",
				"address3": "#01-1847",
				"fax": "64520827",
				"fromTime": "08:00:00",
				"fromTimeExtra": "08:00:00",
				"id": "15",
				"identifier": "492",
				"is24Hour": false,
				"isCAC": false,
				"isFullWeek": true,
				"isSAG": true,
				"isStore": false,
				"lat": 1.37113,
				"long": 103.8563,
				"name": "Ang Mo Kio Blk 574",
				"phone": "+6564524119",
				"postalCode": "560574",
				"serviceType": "STL",
				"sngBusinessHours": "",
				"storeType": "FairPrice",
				"toTime": "22:00:00",
				"toTimeExtra": "22:00:00",
				"zoneId": "North-East"
			},
			{
				"active": 1,
				"address": "Blk 510 Bishan St 13 #01-520, 570510",
				"address1": "#01-520,510 Bishan Street 13,570510",
				"address2": "",
				"address3": "#01-520",
				"fax": "",
				"fromTime": "07:00:00",
				"fromTimeExtra": "07:00:00",
				"id": "16",
				"identifier": "312",
				"is24Hour": false,
				"isCAC": true,
				"isFullWeek": true,
				"isSAG": true,
				"isStore": false,
				"lat": 1.34863,
				"long": 103.84989,
				"name": "Bishan Blk 510",
				"phone": "+6563536036",
				"postalCode": "570510",
				"serviceType": "",
				"sngBusinessHours": "",
				"storeType": "FairPrice",
				"toTime": "23:00:00",
				"toTimeExtra": "23:00:00",
				"zoneId": "North-East"
			},
			{
				"active": 1,
				"address": "1 Stadium Place, #01-29 Singapore Sports Hub, 397628",
				"address1": "#01-29,1 Stadium Place,1 Stadium Place,397628",
				"address2": "1 Stadium Place",
				"address3": "#01-29",
				"fax": "67027282",
				"fromTime": "08:00:00",
				"fromTimeExtra": "08:00:00",
				"id": "17",
				"identifier": "476",
				"is24Hour": false,
				"isCAC": false,
				"isFullWeek": true,
				"isSAG": false,
				"isStore": false,
				"lat": 1.30147,
				"long": 103.8759,
				"name": "Hyper Sports Hub (FFS)",
				"phone": "+6567027281",
				"postalCode": "397628",
				"serviceType": "STL",
				"sngBusinessHours": "",
				"storeType": "FairPrice Xtra",
				"toTime": "23:00:00",
				"toTimeExtra": "23:00:00",
				"zoneId": "Central"
			},
			{
				"active": 1,
				"address": "Blk 476 Upper Serangoon View, #02-18, 530476",
				"address1": "#02-18,476 Upp Serangoon View,530476",
				"address2": "",
				"address3": "#02-18",
				"fax": "67024800",
				"fromTime": "07:00:00",
				"fromTimeExtra": "07:00:00",
				"id": "18",
				"identifier": "485",
				"is24Hour": false,
				"isCAC": true,
				"isFullWeek": true,
				"isSAG": true,
				"isStore": false,
				"lat": 1.37735,
				"long": 103.90372,
				"name": "Serangoon View",
				"phone": "+6567026100",
				"postalCode": "530476",
				"serviceType": "STL",
				"sngBusinessHours": "",
				"storeType": "FairPrice",
				"toTime": "23:00:00",
				"toTimeExtra": "23:00:00",
				"zoneId": "North-East"
			},
			{
				"active": 1,
				"address": "Blk 355 Sembawang Way #01-01, 750355 ",
				"address1": "#01-01,355 Sembawang Way,750355",
				"address2": "",
				"address3": "#01-01",
				"fax": "64843179",
				"fromTime": "00:00:00",
				"fromTimeExtra": "00:00:00",
				"id": "19",
				"identifier": "427",
				"is24Hour": false,
				"isCAC": false,
				"isFullWeek": true,
				"isSAG": true,
				"isStore": false,
				"lat": 1.44966,
				"long": 103.81863,
				"name": "Sembawang Way",
				"phone": "+6564843176",
				"postalCode": "750355",
				"serviceType": "STL",
				"sngBusinessHours": "",
				"storeType": "FairPrice",
				"toTime": "23:59:59",
				"toTimeExtra": "23:59:59",
				"zoneId": "North"
			},
			{
				"active": 1,
				"address": "65 Airport Boulevard, Basement 2 North Unit B2LS2, #B2-10, Terminal 3, 819663",
				"address1": "#B2-10,65 Changi Airport Terminal 3, Airport Boulevard, Basement 2 North,819663",
				"address2": "",
				"address3": "#B2-10",
				"fax": "62422048",
				"fromTime": "07:00:00",
				"fromTimeExtra": "07:00:00",
				"id": "20",
				"identifier": "428",
				"is24Hour": false,
				"isCAC": false,
				"isFullWeek": true,
				"isSAG": true,
				"isStore": false,
				"lat": 1.35672,
				"long": 103.98651,
				"name": "Changi Airport T3",
				"phone": "+6562426653",
				"postalCode": "819663",
				"serviceType": "STL",
				"sngBusinessHours": "",
				"storeType": "FairPrice Finest",
				"toTime": "23:00:00",
				"toTimeExtra": "23:00:00",
				"zoneId": "East"
			},
			{
				"active": 1,
				"address": "Blk 28 Dover Crescent, #01-83, 130028",
				"address1": "#01-83,28 Dover Cresent,130028",
				"address2": "",
				"address3": "#01-83",
				"fax": "",
				"fromTime": "08:00:00",
				"fromTimeExtra": "08:00:00",
				"id": "21",
				"identifier": "429",
				"is24Hour": false,
				"isCAC": false,
				"isFullWeek": true,
				"isSAG": true,
				"isStore": false,
				"lat": 1.30438,
				"long": 103.78195,
				"name": "Dover",
				"phone": "+6567736269",
				"postalCode": "130028",
				"serviceType": "STL",
				"sngBusinessHours": "",
				"storeType": "FairPrice",
				"toTime": "23:00:00",
				"toTimeExtra": "23:00:00",
				"zoneId": "West"
			},
			{
				"active": 1,
				"address": "Blk 5 Upper Boon Keng Road, #01-05, 380005",
				"address1": "#01-05,5 Upper Boon Keng Road,380005",
				"address2": "",
				"address3": "#01-05",
				"fax": "",
				"fromTime": "07:00:00",
				"fromTimeExtra": "07:00:00",
				"id": "22",
				"identifier": "430",
				"is24Hour": false,
				"isCAC": false,
				"isFullWeek": true,
				"isSAG": true,
				"isStore": false,
				"lat": 1.31751,
				"long": 103.87409,
				"name": "Upper Boon Keng",
				"phone": "+6567422116",
				"postalCode": "380005",
				"serviceType": "STL",
				"sngBusinessHours": "",
				"storeType": "FairPrice",
				"toTime": "23:00:00",
				"toTimeExtra": "23:00:00",
				"zoneId": "Central"
			},
			{
				"active": 1,
				"address": "Blk 277C Compassvale Link, #01-13, 544277",
				"address1": "#01-13,277C Compassvale Link, 544277",
				"address2": "",
				"address3": "",
				"fax": "64818014",
				"fromTime": "00:00:00",
				"fromTimeExtra": "00:00:00",
				"id": "23",
				"identifier": "431",
				"is24Hour": false,
				"isCAC": true,
				"isFullWeek": true,
				"isSAG": true,
				"isStore": false,
				"lat": 1.38185,
				"long": 103.89393,
				"name": "Compassvale Link",
				"phone": "+6564818505",
				"postalCode": "544277",
				"serviceType": "",
				"sngBusinessHours": "",
				"storeType": "FairPrice",
				"toTime": "23:59:59",
				"toTimeExtra": "23:59:59",
				"zoneId": "North-East"
			},
			{
				"active": 1,
				"address": "Blk 80 Lorong Limau, #01-191, 320080",
				"address1": "#01-191,80 Lorong Limau Road,320080",
				"address2": "",
				"address3": "#01-191",
				"fax": "62569602",
				"fromTime": "00:00:00",
				"fromTimeExtra": "00:00:00",
				"id": "24",
				"identifier": "432",
				"is24Hour": false,
				"isCAC": false,
				"isFullWeek": true,
				"isSAG": true,
				"isStore": false,
				"lat": 1.32374,
				"long": 103.85554,
				"name": "Lorong Limau",
				"phone": "+6562562253",
				"postalCode": "320080",
				"serviceType": "STL",
				"sngBusinessHours": "",
				"storeType": "FairPrice",
				"toTime": "23:59:59",
				"toTimeExtra": "23:59:59",
				"zoneId": "Central"
			},
			{
				"active": 1,
				"address": "Blk 36 Holland Drive, #01-03/04/05, 270036",
				"address1": "#01-03/04/05,36 Holland Drive,270036",
				"address2": "",
				"address3": "#01-03/04/05",
				"fax": "",
				"fromTime": "00:00:00",
				"fromTimeExtra": "00:00:00",
				"id": "25",
				"identifier": "435",
				"is24Hour": false,
				"isCAC": false,
				"isFullWeek": true,
				"isSAG": true,
				"isStore": false,
				"lat": 1.30946,
				"long": 103.79281,
				"name": "Buona Vista CC",
				"phone": "+6567736387",
				"postalCode": "270036",
				"serviceType": "STL",
				"sngBusinessHours": "",
				"storeType": "FairPrice",
				"toTime": "23:59:59",
				"toTimeExtra": "23:59:59",
				"zoneId": "Central"
			},
			{
				"active": 1,
				"address": "21 Choa Chu Kang North 6, Yew Tee Point, #B1-01, 689578 ",
				"address1": "#B1-01,Yew Tee Point,21 Choa Chu Kang North 6,689578",
				"address2": "Yew Tee Point",
				"address3": "#B1-01",
				"fax": "67636891",
				"fromTime": "07:00:00",
				"fromTimeExtra": "07:00:00",
				"id": "26",
				"identifier": "437",
				"is24Hour": false,
				"isCAC": false,
				"isFullWeek": true,
				"isSAG": true,
				"isStore": false,
				"lat": 1.3974334555079,
				"long": 103.7464132073403,
				"name": "Yew Tee Point",
				"phone": "+6567639011",
				"postalCode": "689578",
				"serviceType": "STL",
				"sngBusinessHours": "",
				"storeType": "FairPrice",
				"toTime": "23:00:00",
				"toTimeExtra": "23:00:00",
				"zoneId": "West"
			},
			{
				"active": 1,
				"address": "Blk 2 Joo Chiat Road #01-1139/#02-1139, Joo Chiat Complex, 420002",
				"address1": "#01/02-1139,Joo Chiat Complex,2 Joo Chiat Road,420002",
				"address2": "Joo Chiat Complex",
				"address3": "#01/02-1139",
				"fax": "67452682",
				"fromTime": "07:00:00",
				"fromTimeExtra": "07:00:00",
				"id": "27",
				"identifier": "438",
				"is24Hour": false,
				"isCAC": false,
				"isFullWeek": true,
				"isSAG": true,
				"isStore": false,
				"lat": 1.31557,
				"long": 103.89907,
				"name": "Joo Chiat Complex",
				"phone": "+6567456977",
				"postalCode": "420002",
				"serviceType": "STL",
				"sngBusinessHours": "",
				"storeType": "FairPrice",
				"toTime": "23:00:00",
				"toTimeExtra": "23:00:00",
				"zoneId": "East"
			},
			{
				"active": 1,
				"address": "180 Kitchener Road, City Square Mall, #B1-09/10, 208539",
				"address1": "#B1-09/10,180 Kitchener Road,208539",
				"address2": "",
				"address3": "#B1-09/10",
				"fax": "65096261",
				"fromTime": "08:00:00",
				"fromTimeExtra": "08:00:00",
				"id": "28",
				"identifier": "439",
				"is24Hour": false,
				"isCAC": true,
				"isFullWeek": true,
				"isSAG": true,
				"isStore": false,
				"lat": 1.31139,
				"long": 103.85661,
				"name": "City Square Mall",
				"phone": "+6565096260",
				"postalCode": "208539",
				"serviceType": "STL",
				"sngBusinessHours": "",
				"storeType": "FairPrice",
				"toTime": "23:00:00",
				"toTimeExtra": "23:00:00",
				"zoneId": "Central"
			},
			{
				"active": 1,
				"address": "100 Hougang Ave 10 #01-01/#02-01, Kang Kar Mall, 538767",
				"address1": "#01-01 \u0026 #02-01,Kang Kar Mall,100 Hougang Ave 10,538767",
				"address2": "Kang Kar Mall",
				"address3": "#01-01 \u0026 #02-01",
				"fax": "63859054",
				"fromTime": "00:00:00",
				"fromTimeExtra": "00:00:00",
				"id": "29",
				"identifier": "440",
				"is24Hour": false,
				"isCAC": true,
				"isFullWeek": true,
				"isSAG": true,
				"isStore": false,
				"lat": 1.37167,
				"long": 103.89435,
				"name": "Kang Kar Mall",
				"phone": "+6563858040",
				"postalCode": "538767",
				"serviceType": "STL",
				"sngBusinessHours": "",
				"storeType": "FairPrice",
				"toTime": "23:59:59",
				"toTimeExtra": "23:59:59",
				"zoneId": "North-East"
			},
			{
				"active": 1,
				"address": "Blk 511 Canberra Road, #02-03, 750511 ",
				"address1": "#02-03,511 Canberra Road,750511",
				"address2": "",
				"address3": "#02-03",
				"fax": "65564597",
				"fromTime": "07:00:00",
				"fromTimeExtra": "07:00:00",
				"id": "30",
				"identifier": "444",
				"is24Hour": false,
				"isCAC": false,
				"isFullWeek": true,
				"isSAG": true,
				"isStore": false,
				"lat": 1.45374,
				"long": 103.81938,
				"name": "Canberra Road Blk 511",
				"phone": "+6565562133",
				"postalCode": "750511",
				"serviceType": "STL",
				"sngBusinessHours": "",
				"storeType": "FairPrice",
				"toTime": "23:00:00",
				"toTimeExtra": "23:00:00",
				"zoneId": "North"
			},
			{
				"active": 1,
				"address": "Blk 5 Eunos Crescent #01-2619/21, 400005",
				"address1": "#01-2623,5 Eunos Crescent,400005",
				"address2": "",
				"address3": "#01-2623",
				"fax": "",
				"fromTime": "08:00:00",
				"fromTimeExtra": "08:00:00",
				"id": "31",
				"identifier": "445",
				"is24Hour": false,
				"isCAC": false,
				"isFullWeek": true,
				"isSAG": true,
				"isStore": false,
				"lat": 1.32128,
				"long": 103.90356,
				"name": "Eunos Crescent Blk 5",
				"phone": "+6567469722",
				"postalCode": "400005",
				"serviceType": "STL",
				"sngBusinessHours": "",
				"storeType": "FairPrice",
				"toTime": "22:00:00",
				"toTimeExtra": "22:00:00",
				"zoneId": "Central"
			},
			{
				"active": 1,
				"address": "Blk 77 Circuit Road #01-464/466, 370077",
				"address1": "#01-464/466,77 Circuit Road,370077",
				"address2": "",
				"address3": "#01-464/466",
				"fax": "",
				"fromTime": "08:00:00",
				"fromTimeExtra": "08:00:00",
				"id": "32",
				"identifier": "446",
				"is24Hour": false,
				"isCAC": false,
				"isFullWeek": true,
				"isSAG": true,
				"isStore": false,
				"lat": 1.32849,
				"long": 103.8854,
				"name": "Circuit Road Blk 77",
				"phone": "+6567497047",
				"postalCode": "370077",
				"serviceType": "STL",
				"sngBusinessHours": "",
				"storeType": "FairPrice",
				"toTime": "22:00:00",
				"toTimeExtra": "22:00:00",
				"zoneId": "Central"
			},
			{
				"active": 1,
				"address": "#01-34 Level 1,Orchid Country Club,1 Orchid Club Rd,769162",
				"address1": "#01-34 Level 1,Orchid Country Club,1 Orchid Club Rd,769162",
				"address2": "Orchid Country Club",
				"address3": "#01-34 Level 1",
				"fax": "64823624",
				"fromTime": "08:00:00",
				"fromTimeExtra": "08:00:00",
				"id": "33",
				"identifier": "098",
				"is24Hour": false,
				"isCAC": false,
				"isFullWeek": true,
				"isSAG": false,
				"isStore": false,
				"lat": 1.41094,
				"long": 103.84369,
				"name": "Orchid Country Club (DS)",
				"phone": "+6564823678",
				"postalCode": "769162",
				"serviceType": "STL",
				"sngBusinessHours": "",
				"storeType": "Warehouse Club",
				"toTime": "23:00:00",
				"toTimeExtra": "23:00:00",
				"zoneId": "North"
			},
			{
				"active": 1,
				"address": "23 Serangoon Central, #03-42 Nex Mall, 556083",
				"address1": "#03-42,nex Mall,23 Serangoon Central,556083",
				"address2": "nex Mall",
				"address3": "#03-42",
				"fax": "66344947",
				"fromTime": "00:00:00",
				"fromTimeExtra": "00:00:00",
				"id": "34",
				"identifier": "449",
				"is24Hour": false,
				"isCAC": true,
				"isFullWeek": true,
				"isSAG": true,
				"isStore": false,
				"lat": 1.35064,
				"long": 103.87181,
				"name": "Nex",
				"phone": "+6566344948",
				"postalCode": "556083",
				"serviceType": "STL",
				"sngBusinessHours": "",
				"storeType": "FairPrice Xtra",
				"toTime": "23:59:59",
				"toTimeExtra": "23:59:59",
				"zoneId": "North-East"
			},
			{
				"active": 1,
				"address": "3155 Commonwealth Avenue West #B1-12/13/14 The Clementi Mall, 129588",
				"address1": "#B1-12/13/14,The Clementi Mall,3155 Commonwealth Avenue West,129588",
				"address2": "The Clementi Mall",
				"address3": "#B1-12/13/14",
				"fax": "66594438",
				"fromTime": "07:00:00",
				"fromTimeExtra": "07:00:00",
				"id": "35",
				"identifier": "450",
				"is24Hour": false,
				"isCAC": false,
				"isFullWeek": true,
				"isSAG": true,
				"isStore": false,
				"lat": 1.31492,
				"long": 103.76431,
				"name": "The Clementi Mall",
				"phone": "+6566594437",
				"postalCode": "129588",
				"serviceType": "STL",
				"sngBusinessHours": "",
				"storeType": "FairPrice Finest",
				"toTime": "23:00:00",
				"toTimeExtra": "23:00:00",
				"zoneId": "West"
			},
			{
				"active": 1,
				"address": "1 Maju Ave #B1-11 to #B1-K09 Serangoon Garden Village, 556679 ",
				"address1": "# B1-11 to 14, # B1-K09,Serangoon Garden Village,1 Maju Avenue,556679",
				"address2": "Serangoon Garden Village",
				"address3": "# B1-11 to 14, # B1-K09",
				"fax": "66342037",
				"fromTime": "00:00:00",
				"fromTimeExtra": "00:00:00",
				"id": "36",
				"identifier": "451",
				"is24Hour": false,
				"isCAC": false,
				"isFullWeek": true,
				"isSAG": true,
				"isStore": false,
				"lat": 1.36522,
				"long": 103.86526,
				"name": "MyVillage",
				"phone": "+6566342038",
				"postalCode": "556679",
				"serviceType": "STL",
				"sngBusinessHours": "",
				"storeType": "FairPrice Finest",
				"toTime": "23:59:59",
				"toTimeExtra": "23:59:59",
				"zoneId": "North-East"
			},
			{
				"active": 1,
				"address": "Blk 215 Ang Mo Kio Ave 1, #01-877, 560215 ",
				"address1": "#01-877,215 Ang Mo Kio Ave 1,560215",
				"address2": "",
				"address3": "#01-877",
				"fax": "",
				"fromTime": "00:00:00",
				"fromTimeExtra": "00:00:00",
				"id": "37",
				"identifier": "452",
				"is24Hour": false,
				"isCAC": false,
				"isFullWeek": true,
				"isSAG": true,
				"isStore": false,
				"lat": 1.36663,
				"long": 103.8415,
				"name": "Ang Mo Kio Blk 215",
				"phone": "+6564588090",
				"postalCode": "560215",
				"serviceType": "STL",
				"sngBusinessHours": "",
				"storeType": "FairPrice",
				"toTime": "23:59:59",
				"toTimeExtra": "23:59:59",
				"zoneId": "North-East"
			},
			{
				"active": 1,
				"address": "18/20 Kim Tian Road, 169252",
				"address1": "18/20 Kim Tian Road,169252",
				"address2": "",
				"address3": "",
				"fax": "62754631",
				"fromTime": "07:00:00",
				"fromTimeExtra": "07:00:00",
				"id": "38",
				"identifier": "454",
				"is24Hour": false,
				"isCAC": false,
				"isFullWeek": true,
				"isSAG": true,
				"isStore": false,
				"lat": 1.2848,
				"long": 103.82935,
				"name": "Kim Tian",
				"phone": "+6562754868",
				"postalCode": "169252",
				"serviceType": "STL",
				"sngBusinessHours": "",
				"storeType": "FairPrice",
				"toTime": "22:00:00",
				"toTimeExtra": "22:00:00",
				"zoneId": "Central"
			},
			{
				"active": 1,
				"address": "Blk 279 Bishan St 24, #01-62/64, 570279 ",
				"address1": "#01-62/64,279 Bishan Street 24,570279",
				"address2": "",
				"address3": "#01-62/64",
				"fax": "",
				"fromTime": "00:00:00",
				"fromTimeExtra": "00:00:00",
				"id": "39",
				"identifier": "455",
				"is24Hour": false,
				"isCAC": false,
				"isFullWeek": true,
				"isSAG": true,
				"isStore": false,
				"lat": 1.35752,
				"long": 103.84409,
				"name": "Bishan North Blk 279",
				"phone": "+6564582558",
				"postalCode": "570279",
				"serviceType": "STL",
				"sngBusinessHours": "",
				"storeType": "FairPrice",
				"toTime": "23:59:59",
				"toTimeExtra": "23:59:59",
				"zoneId": "North-East"
			},
			{
				"active": 1,
				"address": "Blk 110 Lengkong Tiga, #01-233/235, 410110",
				"address1": "#01-233/235,110 Lengkong Tiga,410110",
				"address2": "",
				"address3": "#01-233/235",
				"fax": "",
				"fromTime": "00:00:00",
				"fromTimeExtra": "00:00:00",
				"id": "40",
				"identifier": "456",
				"is24Hour": false,
				"isCAC": false,
				"isFullWeek": true,
				"isSAG": true,
				"isStore": false,
				"lat": 1.3238,
				"long": 103.91079,
				"name": "Lengkong Tiga",
				"phone": "+6567487794",
				"postalCode": "410110",
				"serviceType": "STL",
				"sngBusinessHours": "",
				"storeType": "FairPrice",
				"toTime": "23:59:59",
				"toTimeExtra": "23:59:59",
				"zoneId": "Central"
			},
			{
				"active": 1,
				"address": "612/620 Geylang Lorong 38, 389551 ",
				"address1": "612/620 Geylang Lorong 38,389551",
				"address2": "",
				"address3": "",
				"fax": "",
				"fromTime": "00:00:00",
				"fromTimeExtra": "00:00:00",
				"id": "41",
				"identifier": "457",
				"is24Hour": false,
				"isCAC": false,
				"isFullWeek": true,
				"isSAG": true,
				"isStore": false,
				"lat": 1.31432,
				"long": 103.88857,
				"name": "Geylang Lorong 38",
				"phone": "+6568416016",
				"postalCode": "389551",
				"serviceType": "STL",
				"sngBusinessHours": "",
				"storeType": "FairPrice",
				"toTime": "23:59:59",
				"toTimeExtra": "23:59:59",
				"zoneId": "Central"
			},
			{
				"active": 1,
				"address": "6 Scotts Road #B1-03 to 07 and #B1-10 Scotts Square, 228209",
				"address1": "#B1-03 to 07 and #B1-10,Scotts Square,6 Scotts Road,228209",
				"address2": "Scotts Square",
				"address3": "#B1-03 to 07 and #B1-10",
				"fax": "66360291",
				"fromTime": "08:00:00",
				"fromTimeExtra": "08:00:00",
				"id": "43",
				"identifier": "459",
				"is24Hour": false,
				"isCAC": false,
				"isFullWeek": true,
				"isSAG": true,
				"isStore": false,
				"lat": 1.30581,
				"long": 103.83278,
				"name": "Scotts Square",
				"phone": "+6566360290",
				"postalCode": "228209",
				"serviceType": "STL",
				"sngBusinessHours": "",
				"storeType": "FairPrice Finest",
				"toTime": "23:00:00",
				"toTimeExtra": "23:00:00",
				"zoneId": "Central"
			},
			{
				"active": 1,
				"address": "460 Alexandra Road, #01-09 and #01-16, 119963",
				"address1": "#01-09 \u0026 #01-16,460 Alexandra Road,119963",
				"address2": "",
				"address3": "#01-09 \u0026 #01-16",
				"fax": "62707303",
				"fromTime": "09:00:00",
				"fromTimeExtra": "09:00:00",
				"id": "44",
				"identifier": "460",
				"is24Hour": false,
				"isCAC": false,
				"isFullWeek": true,
				"isSAG": true,
				"isStore": false,
				"lat": 1.27364,
				"long": 103.80159,
				"name": "PSA Branch",
				"phone": "+6562769903",
				"postalCode": "119963",
				"serviceType": "STL",
				"sngBusinessHours": "",
				"storeType": "FairPrice",
				"toTime": "22:00:00",
				"toTimeExtra": "22:00:00",
				"zoneId": "West"
			},
			{
				"active": 1,
				"address": "8 Changi Business Park Ave 1, #01-51\u0026 #02-51, 486018",
				"address1": "#01-51 \u0026 #02-51,8 Changi Business Park Ave 1,486018",
				"address2": "",
				"address3": "#01-51 \u0026 #02-51",
				"fax": "66047546",
				"fromTime": "08:00:00",
				"fromTimeExtra": "08:00:00",
				"id": "45",
				"identifier": "461",
				"is24Hour": false,
				"isCAC": false,
				"isFullWeek": true,
				"isSAG": false,
				"isStore": false,
				"lat": 1.33484,
				"long": 103.96391,
				"name": "Hyper Changi (FFS)",
				"phone": "+6566047548",
				"postalCode": "486018",
				"serviceType": "STL",
				"sngBusinessHours": "",
				"storeType": "FairPrice Xtra",
				"toTime": "23:00:00",
				"toTimeExtra": "23:00:00",
				"zoneId": "East"
			},
			{
				"active": 1,
				"address": "20 Ah Hood Road #02-01 Zhong Shan Park, 329984",
				"address1": "#02-01,Zhong Shan Park,20 Ah Hood Road,329984",
				"address2": "Zhong Shan Park",
				"address3": "#02-01",
				"fax": "67340260",
				"fromTime": "08:00:00",
				"fromTimeExtra": "08:00:00",
				"id": "46",
				"identifier": "462",
				"is24Hour": false,
				"isCAC": true,
				"isFullWeek": true,
				"isSAG": true,
				"isStore": false,
				"lat": 1.32809,
				"long": 103.84753,
				"name": "Zhong Shan Park",
				"phone": "+6567340536",
				"postalCode": "329984",
				"serviceType": "STL",
				"sngBusinessHours": "",
				"storeType": "FairPrice Finest",
				"toTime": "23:00:00",
				"toTimeExtra": "23:00:00",
				"zoneId": "Central"
			},
			{
				"active": 1,
				"address": "133 New Bridge Road, #B1-01 Chinatown Point, 059413",
				"address1": "#B1-01,Chinatown Point,133 New Bridge Road,059413",
				"address2": "Chinatown Point",
				"address3": "#B1-01",
				"fax": "67020382",
				"fromTime": "08:00:00",
				"fromTimeExtra": "08:00:00",
				"id": "47",
				"identifier": "463",
				"is24Hour": false,
				"isCAC": false,
				"isFullWeek": true,
				"isSAG": true,
				"isStore": false,
				"lat": 1.28526,
				"long": 103.84472,
				"name": "Chinatown Point",
				"phone": "+6567020381",
				"postalCode": "59413",
				"serviceType": "STL",
				"sngBusinessHours": "",
				"storeType": "FairPrice",
				"toTime": "23:00:00",
				"toTimeExtra": "23:00:00",
				"zoneId": "Central"
			},
			{
				"active": 1,
				"address": "100 Tras Street #B1-01 100AM, 079027",
				"address1": "#B1-01,100Am,100 Tras Street,079027",
				"address2": "100Am",
				"address3": "#B1-01",
				"fax": "66047405",
				"fromTime": "08:00:00",
				"fromTimeExtra": "08:00:00",
				"id": "48",
				"identifier": "464",
				"is24Hour": false,
				"isCAC": true,
				"isFullWeek": true,
				"isSAG": true,
				"isStore": false,
				"lat": 1.27852,
				"long": 103.84447,
				"name": "100AM",
				"phone": "+6566047457",
				"postalCode": "79027",
				"serviceType": "STL",
				"sngBusinessHours": "",
				"storeType": "FairPrice Finest",
				"toTime": "22:30:00",
				"toTimeExtra": "22:30:00",
				"zoneId": "North-East"
			},
			{
				"active": 1,
				"address": "Blk 570B Woodlands Ave 1, #01-06, 732570",
				"address1": "#01-06,570B Woodlands Ave 1,732570",
				"address2": "",
				"address3": "#01-06",
				"fax": "",
				"fromTime": "08:00:00",
				"fromTimeExtra": "08:00:00",
				"id": "49",
				"identifier": "465",
				"is24Hour": false,
				"isCAC": false,
				"isFullWeek": true,
				"isSAG": true,
				"isStore": false,
				"lat": 1.43092,
				"long": 103.79084,
				"name": "Woodlands Ave 1",
				"phone": "+6563392996",
				"postalCode": "732570",
				"serviceType": "STL",
				"sngBusinessHours": "",
				"storeType": "FairPrice",
				"toTime": "22:00:00",
				"toTimeExtra": "22:00:00",
				"zoneId": "North"
			},
			{
				"active": 1,
				"address": "491 River Valley Road #01-14 Valley Point, 248371",
				"address1": "#01-14,Valley Point,491 River Valley Road,248371",
				"address2": "Valley Point",
				"address3": "#01-14",
				"fax": "67339861",
				"fromTime": "07:30:00",
				"fromTimeExtra": "07:30:00",
				"id": "50",
				"identifier": "466",
				"is24Hour": false,
				"isCAC": true,
				"isFullWeek": true,
				"isSAG": true,
				"isStore": false,
				"lat": 1.29304,
				"long": 103.82693,
				"name": "Valley Point",
				"phone": "+6567339358",
				"postalCode": "248371",
				"serviceType": "STL",
				"sngBusinessHours": "",
				"storeType": "FairPrice Finest",
				"toTime": "23:00:00",
				"toTimeExtra": "23:00:00",
				"zoneId": "Central"
			},
			{
				"active": 1,
				"address": "Blk 502 West Coast Drive, #01-41, 120502",
				"address1": "#01-41,502 West Coast Drive,120502",
				"address2": "",
				"address3": "#01-41",
				"fax": "",
				"fromTime": "07:00:00",
				"fromTimeExtra": "07:00:00",
				"id": "51",
				"identifier": "467",
				"is24Hour": false,
				"isCAC": false,
				"isFullWeek": true,
				"isSAG": true,
				"isStore": false,
				"lat": 1.31172,
				"long": 103.75903,
				"name": "West Coast",
				"phone": "+6567766620",
				"postalCode": "120502",
				"serviceType": "STL",
				"sngBusinessHours": "",
				"storeType": "FairPrice",
				"toTime": "23:00:00",
				"toTimeExtra": "23:00:00",
				"zoneId": "West"
			},
			{
				"active": 1,
				"address": "50 Jurong Gateway Road, #B1-21/22 \u0026 #B3-01, 608549",
				"address1": "#B1 -21/22 \u0026 B3 -01,50 Jurong Gateway Road,608549",
				"address2": "",
				"address3": "#B1 -21/22 \u0026 B3 -01",
				"fax": "63390385",
				"fromTime": "07:00:00",
				"fromTimeExtra": "07:00:00",
				"id": "52",
				"identifier": "469",
				"is24Hour": false,
				"isCAC": false,
				"isFullWeek": true,
				"isSAG": false,
				"isStore": false,
				"lat": 1.33316,
				"long": 103.74452,
				"name": "Hyper Jem (FFS)",
				"phone": "+6563391729",
				"postalCode": "608549",
				"serviceType": "STL",
				"sngBusinessHours": "",
				"storeType": "FairPrice Xtra",
				"toTime": "23:00:00",
				"toTimeExtra": "23:00:00",
				"zoneId": "West"
			},
			{
				"active": 1,
				"address": "20 Lengkok Bahru, #01-13, 159053",
				"address1": "#01-13,20 Lengkok Bahru,159053",
				"address2": "",
				"address3": "#01-13",
				"fax": "64720147",
				"fromTime": "09:00:00",
				"fromTimeExtra": "09:00:00",
				"id": "53",
				"identifier": "481",
				"is24Hour": false,
				"isCAC": false,
				"isFullWeek": true,
				"isSAG": true,
				"isStore": false,
				"lat": 1.28721,
				"long": 103.81483,
				"name": "Redhill",
				"phone": "+6564720048",
				"postalCode": "159053",
				"serviceType": "STL",
				"sngBusinessHours": "",
				"storeType": "FairPrice",
				"toTime": "21:00:00",
				"toTimeExtra": "21:00:00",
				"zoneId": "Central"
			},
			{
				"active": 1,
				"address": "1 Jalan Bukit Merah, #01-4500, 150001",
				"address1": "#01-4500,1 Jalan Bukit Merah,150001",
				"address2": "",
				"address3": "#01-4500",
				"fax": "",
				"fromTime": "08:00:00",
				"fromTimeExtra": "08:00:00",
				"id": "54",
				"identifier": "488",
				"is24Hour": false,
				"isCAC": false,
				"isFullWeek": true,
				"isSAG": true,
				"isStore": false,
				"lat": 1.2865,
				"long": 103.8081,
				"name": "Jalan Bukit Merah",
				"phone": "+6562530146",
				"postalCode": "150001",
				"serviceType": "STL",
				"sngBusinessHours": "",
				"storeType": "FairPrice",
				"toTime": "23:00:00",
				"toTimeExtra": "23:00:00",
				"zoneId": "Central"
			},
			{
				"active": 1,
				"address": "2 Bukit Batok West Ave 7 #01-10, HomeTeamNS Bukit Batok Clubhouse, 659003",
				"address1": "#01-10,HomeTeamNS Clubhse,2 Bukit Batok West,659003",
				"address2": "HomeTeamNS Clubhse",
				"address3": "#01-10",
				"fax": "",
				"fromTime": "08:00:00",
				"fromTimeExtra": "08:00:00",
				"id": "55",
				"identifier": "477",
				"is24Hour": false,
				"isCAC": false,
				"isFullWeek": true,
				"isSAG": true,
				"isStore": false,
				"lat": 1.36543,
				"long": 103.74704,
				"name": "Bukit Batok HT",
				"phone": "+6565691789",
				"postalCode": "659003",
				"serviceType": "STL",
				"sngBusinessHours": "",
				"storeType": "FairPrice",
				"toTime": "23:00:00",
				"toTimeExtra": "23:00:00",
				"zoneId": "West"
			},
			{
				"active": 1,
				"address": "61 Choa Chu Kang Drive, #01-01 Yew Tee MRT Station, 689715",
				"address1": "#01-01 ,Yew Tee MRT Station,61 Choa Chu Kang Drive,689715",
				"address2": "Yew Tee MRT Station",
				"address3": "#01-01 ",
				"fax": "67693956",
				"fromTime": "00:00:00",
				"fromTimeExtra": "00:00:00",
				"id": "58",
				"identifier": "499",
				"is24Hour": false,
				"isCAC": false,
				"isFullWeek": true,
				"isSAG": true,
				"isStore": false,
				"lat": 1.3969662263867,
				"long": 103.7474267643833,
				"name": "Yew Tee MRT",
				"phone": "+6567693819",
				"postalCode": "689715",
				"serviceType": "STL",
				"sngBusinessHours": "",
				"storeType": "FairPrice Finest",
				"toTime": "23:59:59",
				"toTimeExtra": "23:59:59",
				"zoneId": "West"
			},
			{
				"active": 1,
				"address": "5 Changi Business Park Central 1 #B1-09/10/11 Changi City Point, 486038",
				"address1": "#B1-09/10/11,5 Changi Business Park Central 1,486038",
				"address2": "",
				"address3": "#B1-09/10/11",
				"fax": "64431472",
				"fromTime": "10:00:00",
				"fromTimeExtra": "10:00:00",
				"id": "59",
				"identifier": "314",
				"is24Hour": false,
				"isCAC": false,
				"isFullWeek": true,
				"isSAG": true,
				"isStore": false,
				"lat": 1.33327,
				"long": 103.9621,
				"name": "Changi City Point",
				"phone": "+6564438547",
				"postalCode": "486038",
				"serviceType": "",
				"sngBusinessHours": "",
				"storeType": "FairPrice Finest",
				"toTime": "22:00:00",
				"toTimeExtra": "22:00:00",
				"zoneId": "East"
			},
			{
				"active": 1,
				"address": "18 Tai Seng Street, Maple Tree 18 #B1-13, 539775",
				"address1": "#B1-13,Mapletree 18,18 Tai Seng Street,539775",
				"address2": "Mapletree 18",
				"address3": "#B1-13",
				"fax": "",
				"fromTime": "08:00:00",
				"fromTimeExtra": "08:00:00",
				"id": "60",
				"identifier": "494",
				"is24Hour": false,
				"isCAC": false,
				"isFullWeek": true,
				"isSAG": true,
				"isStore": false,
				"lat": 1.337,
				"long": 103.88891,
				"name": " Tai Seng",
				"phone": "+6563864572",
				"postalCode": "539775",
				"serviceType": "STL",
				"sngBusinessHours": "",
				"storeType": "FairPrice",
				"toTime": "22:00:00",
				"toTimeExtra": "22:00:00",
				"zoneId": "North-East"
			},
			{
				"active": 1,
				"address": "10 Eunos Road 8, SingPost Centre, #B1-101 to 107, 408600",
				"address1": "#B1-101 to 107,SingPost Centre,10 Eunos Road 8,408600",
				"address2": "SingPost Centre",
				"address3": "#B1-101 to 107",
				"fax": "67472758",
				"fromTime": "08:00:00",
				"fromTimeExtra": "08:00:00",
				"id": "61",
				"identifier": "344",
				"is24Hour": false,
				"isCAC": false,
				"isFullWeek": true,
				"isSAG": true,
				"isStore": false,
				"lat": 1.31896,
				"long": 103.89396,
				"name": "SingPost Centre",
				"phone": "+6567472896",
				"postalCode": "408600",
				"serviceType": "STL",
				"sngBusinessHours": "",
				"storeType": "FairPrice",
				"toTime": "23:00:00",
				"toTimeExtra": "23:00:00",
				"zoneId": "Central"
			},
			{
				"active": 1,
				"address": "Blk 95 Toa Payoh Lorong 4, #01-68/70/72, 310095",
				"address1": "#01-68/70/72,Blk 95 Toa Payoh Lorong 4,310095",
				"address2": "",
				"address3": "#01-68/70/72",
				"fax": "",
				"fromTime": "08:00:00",
				"fromTimeExtra": "08:00:00",
				"id": "62",
				"identifier": "317",
				"is24Hour": false,
				"isCAC": false,
				"isFullWeek": true,
				"isSAG": true,
				"isStore": false,
				"lat": 1.33892,
				"long": 103.84899,
				"name": "Toa Payoh Blk 95",
				"phone": "+6565600197",
				"postalCode": "310095",
				"serviceType": "",
				"sngBusinessHours": "",
				"storeType": "FairPrice",
				"toTime": "22:00:00",
				"toTimeExtra": "22:00:00",
				"zoneId": "Central"
			},
			{
				"active": 1,
				"address": "Blk 30 Bendemeer Road, #01-871, 330030",
				"address1": "#01-871 ,Blk 30 Bendemeer Road,330030",
				"address2": "",
				"address3": "#01-871 ",
				"fax": "",
				"fromTime": "08:00:00",
				"fromTimeExtra": "08:00:00",
				"id": "63",
				"identifier": "316",
				"is24Hour": false,
				"isCAC": false,
				"isFullWeek": true,
				"isSAG": true,
				"isStore": false,
				"lat": 1.3197,
				"long": 103.86388,
				"name": "Bendemeer Road",
				"phone": "+6562943302",
				"postalCode": "330030",
				"serviceType": "",
				"sngBusinessHours": "",
				"storeType": "FairPrice",
				"toTime": "22:00:00",
				"toTimeExtra": "22:00:00",
				"zoneId": "Central"
			},
			{
				"active": 1,
				"address": "598 Yishun Ring Road, #01-01Wisteria Mall, 768698",
				"address1": "#01-01,Wisteria Mall,598 Yishun Ring Road,768698",
				"address2": "Wisteria Mall",
				"address3": "#01-01",
				"fax": "63390806",
				"fromTime": "08:00:00",
				"fromTimeExtra": "08:00:00",
				"id": "64",
				"identifier": "496",
				"is24Hour": false,
				"isCAC": false,
				"isFullWeek": true,
				"isSAG": false,
				"isStore": false,
				"lat": 1.41814,
				"long": 103.84099,
				"name": "Wisteria Mall (CNC)",
				"phone": "+6563390802",
				"postalCode": "768698",
				"serviceType": "STL",
				"sngBusinessHours": "",
				"storeType": "FairPrice Finest",
				"toTime": "23:00:00",
				"toTimeExtra": "23:00:00",
				"zoneId": "North"
			},
			{
				"active": 1,
				"address": "111 Somerset Road, #01-01/02, #01-21 to 30, 238164",
				"address1": "#01-01/02, #01-21/30,111 Somerset,111 Somerset Road,238164",
				"address2": "111 Somerset",
				"address3": "#01-01/02, #01-21/30",
				"fax": "62193379",
				"fromTime": "08:00:00",
				"fromTimeExtra": "08:00:00",
				"id": "65",
				"identifier": "366",
				"is24Hour": false,
				"isCAC": true,
				"isFullWeek": true,
				"isSAG": true,
				"isStore": false,
				"lat": 1.30019,
				"long": 103.8373,
				"name": "111 Somerset",
				"phone": "+6562193378",
				"postalCode": "238164",
				"serviceType": "STL",
				"sngBusinessHours": "",
				"storeType": "FairPrice Finest",
				"toTime": "23:00:00",
				"toTimeExtra": "23:00:00",
				"zoneId": "Central"
			},
			{
				"active": 1,
				"address": "681 Punggol Drive Oasis Terraces, #B1-01, 820681",
				"address1": "B1-01,Oasis Terraces,681 Punggol Drive Oasis Terraces,820681",
				"address2": "Oasis Terraces",
				"address3": "B1-01",
				"fax": "",
				"fromTime": "07:00:00",
				"fromTimeExtra": "07:00:00",
				"id": "66",
				"identifier": "351",
				"is24Hour": false,
				"isCAC": false,
				"isFullWeek": true,
				"isSAG": false,
				"isStore": false,
				"lat": 1.40241,
				"long": 103.91282,
				"name": "Punggol Oasis (FFS)",
				"phone": "+6562444081",
				"postalCode": "820681",
				"serviceType": "STL",
				"sngBusinessHours": "",
				"storeType": "FairPrice",
				"toTime": "23:00:00",
				"toTimeExtra": "23:00:00",
				"zoneId": "North-East"
			},
			{
				"active": 1,
				"address": "Blk 29A, Ghim Moh Link, #01-01, 271029",
				"address1": "#01-01,Blk 29A Ghim Moh Link,271029",
				"address2": "",
				"address3": "#01-01",
				"fax": "",
				"fromTime": "00:00:00",
				"fromTimeExtra": "00:00:00",
				"id": "67",
				"identifier": "348",
				"is24Hour": false,
				"isCAC": false,
				"isFullWeek": true,
				"isSAG": true,
				"isStore": false,
				"lat": 1.30866,
				"long": 103.78475,
				"name": "Ghim Moh Link",
				"phone": "+6566942513",
				"postalCode": "271029",
				"serviceType": "STL",
				"sngBusinessHours": "",
				"storeType": "FairPrice",
				"toTime": "23:59:59",
				"toTimeExtra": "23:59:59",
				"zoneId": "Central"
			},
			{
				"active": 1,
				"address": "Blk 612 Punggol Drive, #01-06, 820612",
				"address1": "#01-06,Blk 612 Punggol Drive,820612",
				"address2": "",
				"address3": "#01-06",
				"fax": "",
				"fromTime": "00:00:00",
				"fromTimeExtra": "00:00:00",
				"id": "68",
				"identifier": "453",
				"is24Hour": false,
				"isCAC": false,
				"isFullWeek": true,
				"isSAG": true,
				"isStore": false,
				"lat": 1.40464,
				"long": 103.90867,
				"name": "Punggol Drive Blk 612",
				"phone": "+6566365760",
				"postalCode": "820612",
				"serviceType": "",
				"sngBusinessHours": "",
				"storeType": "FairPrice",
				"toTime": "23:59:59",
				"toTimeExtra": "23:59:59",
				"zoneId": "North-East"
			},
			{
				"active": 1,
				"address": "Blk 676 Woodlands Drive 71, #B1-02, Kampung Admiralty, 730676",
				"address1": "#B1-02,676 Woodlands Drive 71,730676",
				"address2": "",
				"address3": "#B1-02",
				"fax": "62523920",
				"fromTime": "00:00:00",
				"fromTimeExtra": "00:00:00",
				"id": "69",
				"identifier": "347",
				"is24Hour": false,
				"isCAC": false,
				"isFullWeek": true,
				"isSAG": true,
				"isStore": false,
				"lat": 1.43978,
				"long": 103.80099,
				"name": "Kampung Admiralty",
				"phone": "+6562580925",
				"postalCode": "730676",
				"serviceType": "STL",
				"sngBusinessHours": "",
				"storeType": "FairPrice",
				"toTime": "23:59:59",
				"toTimeExtra": "23:59:59",
				"zoneId": "North"
			},
			{
				"active": 1,
				"address": "1 Northpoint Drive, Northpoint City, #B2-103 to 107, 768019",
				"address1": "#B2-103/107,Northpoint City,1 Northpoint Drive,768019",
				"address2": "Northpoint City",
				"address3": "#B2-103/107",
				"fax": "64814014",
				"fromTime": "08:00:00",
				"fromTimeExtra": "08:00:00",
				"id": "70",
				"identifier": "495",
				"is24Hour": false,
				"isCAC": false,
				"isFullWeek": true,
				"isSAG": true,
				"isStore": false,
				"lat": 1.42963,
				"long": 103.83613,
				"name": "Northpoint City",
				"phone": "+6564813420",
				"postalCode": "768019",
				"serviceType": "STL",
				"sngBusinessHours": "",
				"storeType": "FairPrice",
				"toTime": "23:00:00",
				"toTimeExtra": "23:00:00",
				"zoneId": "North"
			},
			{
				"active": 1,
				"address": "Blk 249 Jurong East St 24, #01-106, 600249",
				"address1": "#01-106,249 Jurong East St 24,600249",
				"address2": "",
				"address3": "#01-106",
				"fax": "",
				"fromTime": "08:00:00",
				"fromTimeExtra": "08:00:00",
				"id": "71",
				"identifier": "491",
				"is24Hour": false,
				"isCAC": false,
				"isFullWeek": true,
				"isSAG": true,
				"isStore": false,
				"lat": 1.34236,
				"long": 103.73922,
				"name": "Jurong East Blk 249",
				"phone": "+6565600107",
				"postalCode": "600249",
				"serviceType": "STL",
				"sngBusinessHours": "",
				"storeType": "FairPrice",
				"toTime": "22:00:00",
				"toTimeExtra": "22:00:00",
				"zoneId": "West"
			},
			{
				"active": 1,
				"address": "Blk 150 Silat Ave, #01-44, 60150",
				"address1": "#01-44,Blk 150 Silat Ave,160150",
				"address2": "",
				"address3": "#01-44",
				"fax": "62524418",
				"fromTime": "08:00:00",
				"fromTimeExtra": "08:00:00",
				"id": "72",
				"identifier": "493",
				"is24Hour": false,
				"isCAC": false,
				"isFullWeek": true,
				"isSAG": true,
				"isStore": false,
				"lat": 1.27706,
				"long": 103.83144,
				"name": "Silat Ave Blk 150",
				"phone": "+6562653188",
				"postalCode": "60150",
				"serviceType": "STL",
				"sngBusinessHours": "",
				"storeType": "FairPrice",
				"toTime": "22:00:00",
				"toTimeExtra": "22:00:00",
				"zoneId": "West"
			},
			{
				"active": 1,
				"address": "Blk 166 Bukit Batok West Ave 8, #01-256/258, 650166 ",
				"address1": "#01-256/258,166 Bukit Batok,West Ave 8,650166",
				"address2": "166 Bukit Batok",
				"address3": "#01-256/258",
				"fax": "",
				"fromTime": "00:00:00",
				"fromTimeExtra": "00:00:00",
				"id": "73",
				"identifier": "483",
				"is24Hour": false,
				"isCAC": false,
				"isFullWeek": true,
				"isSAG": true,
				"isStore": false,
				"lat": 1.34708,
				"long": 103.74271,
				"name": "Bukit Batok West",
				"phone": "+6565646717",
				"postalCode": "650166",
				"serviceType": "STL",
				"sngBusinessHours": "",
				"storeType": "FairPrice",
				"toTime": "23:59:59",
				"toTimeExtra": "23:59:59",
				"zoneId": "West"
			},
			{
				"active": 1,
				"address": "1 Tampines Walk, Our Tampines Hub, #B1-01, 528523",
				"address1": "#B1-01,Our Tampines Hub,1 Tampines Walk,528523",
				"address2": "Our Tampines Hub",
				"address3": "#B1-01",
				"fax": "63866762",
				"fromTime": "00:00:00",
				"fromTimeExtra": "00:00:00",
				"id": "74",
				"identifier": "301",
				"is24Hour": false,
				"isCAC": false,
				"isFullWeek": true,
				"isSAG": true,
				"isStore": false,
				"lat": 1.35276,
				"long": 103.94006,
				"name": "Our Tampines Hub",
				"phone": "+6563866751",
				"postalCode": "528523",
				"serviceType": "",
				"sngBusinessHours": "",
				"storeType": "FairPrice",
				"toTime": "23:59:59",
				"toTimeExtra": "23:59:59",
				"zoneId": "East"
			},
			{
				"active": 1,
				"address": "Blk 345 Jurong East St 31, #01-29, 600345 ",
				"address1": "#01-29,Blk 345,Jurong East St 31,600345",
				"address2": "Blk 345",
				"address3": "#01-29",
				"fax": "",
				"fromTime": "00:00:00",
				"fromTimeExtra": "00:00:00",
				"id": "76",
				"identifier": "479",
				"is24Hour": false,
				"isCAC": false,
				"isFullWeek": true,
				"isSAG": true,
				"isStore": false,
				"lat": 1.34553,
				"long": 103.73113,
				"name": "Jurong East 345",
				"phone": "+6565651513",
				"postalCode": "600345",
				"serviceType": "STL",
				"sngBusinessHours": "",
				"storeType": "FairPrice",
				"toTime": "23:59:59",
				"toTimeExtra": "23:59:59",
				"zoneId": "West"
			},
			{
				"active": 1,
				"address": "Blk 279 Sengkang East Avenue, #01-06, 540279 ",
				"address1": "#01-06,Blk 279,SengKang East Ave,540279",
				"address2": "Blk 279",
				"address3": "#01-06",
				"fax": "",
				"fromTime": "00:00:00",
				"fromTimeExtra": "00:00:00",
				"id": "77",
				"identifier": "482",
				"is24Hour": false,
				"isCAC": true,
				"isFullWeek": true,
				"isSAG": true,
				"isStore": false,
				"lat": 1.38667,
				"long": 103.89302,
				"name": "Sengkang East Avenue",
				"phone": "+6563845829",
				"postalCode": "540279",
				"serviceType": "STL",
				"sngBusinessHours": "",
				"storeType": "FairPrice",
				"toTime": "23:59:59",
				"toTimeExtra": "23:59:59",
				"zoneId": "North-East"
			},
			{
				"active": 1,
				"address": "10 Bukit Batok Central, #01-08, 659958",
				"address1": "#01-08,10 Bukit Batok Central,659958",
				"address2": "",
				"address3": "#01-08",
				"fax": "",
				"fromTime": "07:00:00",
				"fromTimeExtra": "07:00:00",
				"id": "78",
				"identifier": "304",
				"is24Hour": false,
				"isCAC": false,
				"isFullWeek": true,
				"isSAG": true,
				"isStore": false,
				"lat": 1.34905,
				"long": 103.74957,
				"name": "Bukit Batok MRT",
				"phone": "+6565696260",
				"postalCode": "659958",
				"serviceType": "",
				"sngBusinessHours": "",
				"storeType": "FairPrice",
				"toTime": "23:30:00",
				"toTimeExtra": "23:30:00",
				"zoneId": "West"
			},
			{
				"active": 1,
				"address": "Blk 50 Havelock Rd, #01-755, 160050 ",
				"address1": "#01-755,50 Havelock Road,160050",
				"address2": "",
				"address3": "#01-755",
				"fax": "62785536",
				"fromTime": "00:00:00",
				"fromTimeExtra": "00:00:00",
				"id": "79",
				"identifier": "305",
				"is24Hour": false,
				"isCAC": false,
				"isFullWeek": true,
				"isSAG": true,
				"isStore": false,
				"lat": 1.28983,
				"long": 103.82679,
				"name": "Bukit Ho Swee",
				"phone": "+6562785506",
				"postalCode": "160050",
				"serviceType": "",
				"sngBusinessHours": "",
				"storeType": "FairPrice",
				"toTime": "23:59:59",
				"toTimeExtra": "23:59:59",
				"zoneId": "Central"
			},
			{
				"active": 1,
				"address": "Blk 221 Boon Lay Place #02-200, Boon Lay Shopping Complex, 640221",
				"address1": "#02-200,Boon Lay Shopping Complex,221 Boon Lay Place,640221",
				"address2": "Boon Lay Shopping Complex",
				"address3": "#02-200",
				"fax": "62657986",
				"fromTime": "00:00:00",
				"fromTimeExtra": "00:00:00",
				"id": "80",
				"identifier": "306",
				"is24Hour": false,
				"isCAC": false,
				"isFullWeek": true,
				"isSAG": true,
				"isStore": false,
				"lat": 1.34622,
				"long": 103.71276,
				"name": "Boon Lay Shopping Complex",
				"phone": "+6562640398",
				"postalCode": "640221",
				"serviceType": "",
				"sngBusinessHours": "",
				"storeType": "FairPrice",
				"toTime": "23:59:59",
				"toTimeExtra": "23:59:59",
				"zoneId": "West"
			},
			{
				"active": 1,
				"address": "Blk 166 Bukit Merah Central, #01-3531 \u0026 02-3531, 150166",
				"address1": "#02-3531,166 Bukit Merah Central,150166",
				"address2": "",
				"address3": "#02-3531",
				"fax": "62733163",
				"fromTime": "07:00:00",
				"fromTimeExtra": "07:00:00",
				"id": "81",
				"identifier": "307",
				"is24Hour": false,
				"isCAC": false,
				"isFullWeek": true,
				"isSAG": false,
				"isStore": false,
				"lat": 1.28284,
				"long": 103.81755,
				"name": "Bukit Merah Central",
				"phone": "+6562734325",
				"postalCode": "150166",
				"serviceType": "",
				"sngBusinessHours": "",
				"storeType": "FairPrice",
				"toTime": "23:00:00",
				"toTimeExtra": "23:00:00",
				"zoneId": "Central"
			},
			{
				"active": 1,
				"address": "Blk 212 Bedok Nth St 1, #01-147, 460212",
				"address1": "#01-147,212 Bedok North Street 1,460212",
				"address2": "",
				"address3": "#01-147",
				"fax": "64438538",
				"fromTime": "00:00:00",
				"fromTimeExtra": "00:00:00",
				"id": "82",
				"identifier": "308",
				"is24Hour": false,
				"isCAC": true,
				"isFullWeek": true,
				"isSAG": true,
				"isStore": false,
				"lat": 1.326,
				"long": 103.93161,
				"name": "Bedok North",
				"phone": "+6564438038",
				"postalCode": "460212",
				"serviceType": "",
				"sngBusinessHours": "",
				"storeType": "FairPrice",
				"toTime": "23:59:59",
				"toTimeExtra": "23:59:59",
				"zoneId": "East"
			},
			{
				"active": 1,
				"address": "Blk 89 Bedok Nth St 4, #01-77/79, 460089 ",
				"address1": "#01-77/79,89 Bedok North Street 4,460089",
				"address2": "",
				"address3": "#01-77/79",
				"fax": "",
				"fromTime": "00:00:00",
				"fromTimeExtra": "00:00:00",
				"id": "83",
				"identifier": "309",
				"is24Hour": false,
				"isCAC": false,
				"isFullWeek": true,
				"isSAG": true,
				"isStore": false,
				"lat": 1.33306,
				"long": 103.93828,
				"name": "Bedok Nth Blk 89",
				"phone": "+6564499517",
				"postalCode": "460089",
				"serviceType": "",
				"sngBusinessHours": "",
				"storeType": "FairPrice",
				"toTime": "23:59:59",
				"toTimeExtra": "23:59:59",
				"zoneId": "East"
			},
			{
				"active": 1,
				"address": "No.1 Jelebu Rd, #01-15 \u0026 #02-20 Bukit Panjang Plaza, 677743",
				"address1": "#01-15 \u0026 02-20,Bukit Panjang Plaza,1 Jelebu Road,677743",
				"address2": "Bukit Panjang Plaza",
				"address3": "#01-15 \u0026 02-20",
				"fax": "67626746",
				"fromTime": "08:00:00",
				"fromTimeExtra": "08:00:00",
				"id": "84",
				"identifier": "310",
				"is24Hour": false,
				"isCAC": false,
				"isFullWeek": true,
				"isSAG": true,
				"isStore": false,
				"lat": 1.37996,
				"long": 103.76415,
				"name": "Bukit Panjang Plaza",
				"phone": "+6567628876",
				"postalCode": "677743",
				"serviceType": "",
				"sngBusinessHours": "",
				"storeType": "FairPrice Finest",
				"toTime": "23:00:00",
				"toTimeExtra": "23:00:00",
				"zoneId": "West"
			},
			{
				"active": 1,
				"address": "No.1 Jln Anak Bukit #B1-01 \u0026 #B2-01 Bukit Timah Plaza, 588996 ",
				"address1": "#B1-01 \u0026 #B2-01,Bukit Timah Plaza,1 Jalan Anak Bukit,588996",
				"address2": "Bukit Timah Plaza",
				"address3": "#B1-01 \u0026 #B2-01",
				"fax": "64684923",
				"fromTime": "00:00:00",
				"fromTimeExtra": "00:00:00",
				"id": "85",
				"identifier": "313",
				"is24Hour": false,
				"isCAC": true,
				"isFullWeek": true,
				"isSAG": true,
				"isStore": false,
				"lat": 1.339,
				"long": 103.77896,
				"name": "Bukit Timah Plaza",
				"phone": "+6564688415",
				"postalCode": "588996",
				"serviceType": "",
				"sngBusinessHours": "",
				"storeType": "FairPrice Finest",
				"toTime": "23:59:59",
				"toTimeExtra": "23:59:59",
				"zoneId": "Central"
			},
			{
				"active": 1,
				"address": "#B16-029,Basement Level South Terminal 2,65 Airport Boulevard,819643",
				"address1": "#B16-029,Basement Level South Terminal 2,65 Airport Boulevard,819643",
				"address2": "Basement Level South Terminal 2",
				"address3": "#B16-029",
				"fax": "65431147",
				"fromTime": "07:00:00",
				"fromTimeExtra": "07:00:00",
				"id": "86",
				"identifier": "318",
				"is24Hour": false,
				"isCAC": false,
				"isFullWeek": true,
				"isSAG": true,
				"isStore": false,
				"lat": 1.35532,
				"long": 103.98834,
				"name": "CHANGI AIRPORT T2",
				"phone": "+6565431239",
				"postalCode": "819643",
				"serviceType": "",
				"sngBusinessHours": "",
				"storeType": "FairPrice",
				"toTime": "23:00:00",
				"toTimeExtra": "23:00:00",
				"zoneId": "East"
			},
			{
				"active": 1,
				"address": "Blk 451 Clementi Ave 3, #01-307,120451 ",
				"address1": "#01-307,451 Clementi Ave 3,120451",
				"address2": "",
				"address3": "#01-307",
				"fax": "67740890",
				"fromTime": "00:00:00",
				"fromTimeExtra": "00:00:00",
				"id": "87",
				"identifier": "319",
				"is24Hour": false,
				"isCAC": true,
				"isFullWeek": true,
				"isSAG": true,
				"isStore": false,
				"lat": 1.31264,
				"long": 103.76567,
				"name": "Clementi A (Blk 451)",
				"phone": "+6567743663",
				"postalCode": "120451",
				"serviceType": "",
				"sngBusinessHours": "",
				"storeType": "FairPrice",
				"toTime": "23:59:59",
				"toTimeExtra": "23:59:59",
				"zoneId": "West"
			},
			{
				"active": 1,
				"address": "Blk 352 Clementi Ave 2, #01-141/143, 120352 ",
				"address1": "#01-141/143,352 Clementi Ave 2,120352",
				"address2": "",
				"address3": "#01-141/143",
				"fax": "67745642",
				"fromTime": "00:00:00",
				"fromTimeExtra": "00:00:00",
				"id": "88",
				"identifier": "320",
				"is24Hour": false,
				"isCAC": false,
				"isFullWeek": true,
				"isSAG": true,
				"isStore": false,
				"lat": 1.3146,
				"long": 103.77153,
				"name": "Clementi Blk 352",
				"phone": "+6567743657",
				"postalCode": "120352",
				"serviceType": "",
				"sngBusinessHours": "",
				"storeType": "FairPrice",
				"toTime": "23:59:59",
				"toTimeExtra": "23:59:59",
				"zoneId": "West"
			},
			{
				"active": 1,
				"address": "587 Bukit Timah Rd #01-01, Coronation Plaza, 269707",
				"address1": "#01-01,Coronation Plaza,587 Bukit Timah Road,269707",
				"address2": "Coronation Plaza",
				"address3": "#01-01",
				"fax": "64696244",
				"fromTime": "08:00:00",
				"fromTimeExtra": "08:00:00",
				"id": "89",
				"identifier": "321",
				"is24Hour": false,
				"isCAC": false,
				"isFullWeek": true,
				"isSAG": true,
				"isStore": false,
				"lat": 1.32378,
				"long": 103.81024,
				"name": "Coronation Plaza",
				"phone": "+6564696245",
				"postalCode": "269707",
				"serviceType": "",
				"sngBusinessHours": "",
				"storeType": "FairPrice",
				"toTime": "23:00:00",
				"toTimeExtra": "23:00:00",
				"zoneId": "Central"
			},
			{
				"active": 1,
				"address": "3 Simei St 6, #05-01 Eastpoint, 528833 ",
				"address1": "05-01,Eastpoint,3 Simei Street 6,528833",
				"address2": "",
				"address3": "",
				"fax": "67862467",
				"fromTime": "00:00:00",
				"fromTimeExtra": "00:00:00",
				"id": "90",
				"identifier": "324",
				"is24Hour": false,
				"isCAC": true,
				"isFullWeek": true,
				"isSAG": true,
				"isStore": false,
				"lat": 1.34259,
				"long": 103.95089,
				"name": "Eastpoint",
				"phone": "+6567860985",
				"postalCode": "528833",
				"serviceType": "",
				"sngBusinessHours": "",
				"storeType": "FairPrice",
				"toTime": "23:59:59",
				"toTimeExtra": "23:59:59",
				"zoneId": "East"
			},
			{
				"active": 1,
				"address": "Blk 114 Aljunied Ave 2, #01-75, 380114",
				"address1": "#01-75,114 Aljunied Ave 2,380114",
				"address2": "",
				"address3": "#01-75",
				"fax": "67488494",
				"fromTime": "00:00:00",
				"fromTimeExtra": "00:00:00",
				"id": "91",
				"identifier": "325",
				"is24Hour": false,
				"isCAC": false,
				"isFullWeek": true,
				"isSAG": true,
				"isStore": false,
				"lat": 1.32175,
				"long": 103.88682,
				"name": "Geylang East",
				"phone": "+6567488493",
				"postalCode": "380114",
				"serviceType": "",
				"sngBusinessHours": "",
				"storeType": "FairPrice",
				"toTime": "23:59:59",
				"toTimeExtra": "23:59:59",
				"zoneId": "Central"
			},
			{
				"active": 1,
				"address": "Blk 202 Hougang St 21#01-00, 530202",
				"address1": "#01-00,202 Hougang Street 21,530202",
				"address2": "",
				"address3": "#01-00",
				"fax": "62870703",
				"fromTime": "00:00:00",
				"fromTimeExtra": "00:00:00",
				"id": "92",
				"identifier": "326",
				"is24Hour": false,
				"isCAC": true,
				"isFullWeek": true,
				"isSAG": true,
				"isStore": false,
				"lat": 1.35744,
				"long": 103.88364,
				"name": "Blk 202 Hougang St 21",
				"phone": "+6562870702",
				"postalCode": "530202",
				"serviceType": "",
				"sngBusinessHours": "",
				"storeType": "FairPrice Finest",
				"toTime": "23:59:59",
				"toTimeExtra": "23:59:59",
				"zoneId": "North-East"
			},
			{
				"active": 1,
				"address": "Blk 682 Hougang Ave 4, #01-310, 530682",
				"address1": "#01-310,682 Hougang Ave 4,530682",
				"address2": "",
				"address3": "#01-310",
				"fax": "",
				"fromTime": "00:00:00",
				"fromTimeExtra": "00:00:00",
				"id": "93",
				"identifier": "327",
				"is24Hour": false,
				"isCAC": false,
				"isFullWeek": true,
				"isSAG": true,
				"isStore": false,
				"lat": 1.37396,
				"long": 103.88542,
				"name": "Hougang Blk 682",
				"phone": "+6563865586",
				"postalCode": "530682",
				"serviceType": "",
				"sngBusinessHours": "",
				"storeType": "FairPrice",
				"toTime": "23:59:59",
				"toTimeExtra": "23:59:59",
				"zoneId": "North-East"
			},
			{
				"active": 1,
				"address": "90 Hougang Ave 10, Hougang Mall, #B1-07, 538766",
				"address1": "#B1-07,Hougang Mall,90 Hougang Ave 10,538766",
				"address2": "Hougang Mall",
				"address3": "#B1-07",
				"fax": "63873115",
				"fromTime": "08:00:00",
				"fromTimeExtra": "08:00:00",
				"id": "94",
				"identifier": "329",
				"is24Hour": false,
				"isCAC": false,
				"isFullWeek": true,
				"isSAG": true,
				"isStore": false,
				"lat": 1.3726930138238,
				"long": 103.8938890380288,
				"name": "Hougang Mall",
				"phone": "+6563873123",
				"postalCode": "538766",
				"serviceType": "",
				"sngBusinessHours": "",
				"storeType": "FairPrice",
				"toTime": "22:00:00",
				"toTimeExtra": "22:00:00",
				"zoneId": "North-East"
			},
			{
				"active": 1,
				"address": "Blk 135 Jurong Gateway Road, #01-337, 600135 ",
				"address1": "#01-337,135 Jurong Gateway Road,600135",
				"address2": "",
				"address3": "#01-337",
				"fax": "65608364",
				"fromTime": "00:00:00",
				"fromTimeExtra": "00:00:00",
				"id": "95",
				"identifier": "331",
				"is24Hour": false,
				"isCAC": false,
				"isFullWeek": true,
				"isSAG": true,
				"isStore": false,
				"lat": 1.3329664597904,
				"long": 103.7424816931153,
				"name": "Jurong East",
				"phone": "+6565608547",
				"postalCode": "600135",
				"serviceType": "",
				"sngBusinessHours": "",
				"storeType": "FairPrice",
				"toTime": "23:59:59",
				"toTimeExtra": "23:59:59",
				"zoneId": "West"
			},
			{
				"active": 1,
				"address": "No.1 Jurong West Central 2, #B1-09 Jurong Point, 648886",
				"address1": "#B1-09,Jurong Point,1 Jurong West Central 2,648886",
				"address2": "Jurong Point",
				"address3": "#B1-09",
				"fax": "67926091",
				"fromTime": "09:00:00",
				"fromTimeExtra": "09:00:00",
				"id": "96",
				"identifier": "332",
				"is24Hour": false,
				"isCAC": false,
				"isFullWeek": true,
				"isSAG": true,
				"isStore": false,
				"lat": 1.3396778659811,
				"long": 103.7071012493515,
				"name": "Jurong Point",
				"phone": "+6567924563",
				"postalCode": "648886",
				"serviceType": "",
				"sngBusinessHours": "",
				"storeType": "FairPrice",
				"toTime": "22:00:00",
				"toTimeExtra": "22:00:00",
				"zoneId": "West"
			},
			{
				"active": 1,
				"address": "Blk 140 Teck Whye Lane, #01-351, 680140 ",
				"address1": "#01-351,140 Teck Whye Lane,680140",
				"address2": "",
				"address3": "#01-351",
				"fax": "67657297",
				"fromTime": "00:00:00",
				"fromTimeExtra": "00:00:00",
				"id": "97",
				"identifier": "334",
				"is24Hour": false,
				"isCAC": false,
				"isFullWeek": true,
				"isSAG": true,
				"isStore": false,
				"lat": 1.38,
				"long": 103.75303,
				"name": "Jalan Teck Whye",
				"phone": "+6567657211",
				"postalCode": "680140",
				"serviceType": "",
				"sngBusinessHours": "",
				"storeType": "FairPrice",
				"toTime": "23:59:59",
				"toTimeExtra": "23:59:59",
				"zoneId": "West"
			},
			{
				"active": 1,
				"address": "Blk 498 Jurong West St 41, #01-434/436/438, 640498 ",
				"address1": "#01-434/436/438,498 Jurong West Street 41,640498",
				"address2": "",
				"address3": "#01-434/436/438",
				"fax": "",
				"fromTime": "00:00:00",
				"fromTimeExtra": "00:00:00",
				"id": "98",
				"identifier": "335",
				"is24Hour": false,
				"isCAC": false,
				"isFullWeek": true,
				"isSAG": true,
				"isStore": false,
				"lat": 1.38,
				"long": 103.75303,
				"name": "Jurong West St 41",
				"phone": "+6565670073",
				"postalCode": "640498",
				"serviceType": "",
				"sngBusinessHours": "",
				"storeType": "FairPrice",
				"toTime": "23:59:59",
				"toTimeExtra": "23:59:59",
				"zoneId": "West"
			},
			{
				"active": 1,
				"address": "Blk 71 Kallang Bahru, #01-529/#02-531, 330071",
				"address1": "#01-529/#02-531,71 Kallang Bahru,330071",
				"address2": "",
				"address3": "#01-529/#02-531",
				"fax": "",
				"fromTime": "07:00:00",
				"fromTimeExtra": "07:00:00",
				"id": "99",
				"identifier": "336",
				"is24Hour": false,
				"isCAC": false,
				"isFullWeek": true,
				"isSAG": true,
				"isStore": false,
				"lat": 1.32055,
				"long": 103.87015,
				"name": "Kallang Bahru",
				"phone": "+6562985369",
				"postalCode": "330071",
				"serviceType": "",
				"sngBusinessHours": "",
				"storeType": "FairPrice",
				"toTime": "23:00:00",
				"toTimeExtra": "23:00:00",
				"zoneId": "Central"
			},
			{
				"active": 1,
				"address": "Blk 533 Choa Chu Kang St 51 #01-01, Limbang Shopping Centre, 680533",
				"address1": "#01-11,Limbang Shopping Centre,533 Choa Chu Kang Street 51,680533",
				"address2": "Limbang Shopping Centre",
				"address3": "#01-11",
				"fax": "",
				"fromTime": "07:00:00",
				"fromTimeExtra": "07:00:00",
				"id": "100",
				"identifier": "337",
				"is24Hour": false,
				"isCAC": false,
				"isFullWeek": true,
				"isSAG": true,
				"isStore": false,
				"lat": 1.39202,
				"long": 103.74313,
				"name": "Limbang Shopping Centre",
				"phone": "+65",
				"postalCode": "680533",
				"serviceType": "",
				"sngBusinessHours": "",
				"storeType": "FairPrice",
				"toTime": "23:00:00",
				"toTimeExtra": "23:00:00",
				"zoneId": "West"
			},
			{
				"active": 1,
				"address": "21 Choa Chu Kang Ave 4, #B1-05  Lot 1 Shoppers' Mall, 689812",
				"address1": "#B1-05,Lot 1 Shoppers' Mall,21 Choa Chu Kang Ave 4,689812",
				"address2": "Lot 1 Shoppers' Mall",
				"address3": "#B1-05",
				"fax": "67662784",
				"fromTime": "07:00:00",
				"fromTimeExtra": "07:00:00",
				"id": "101",
				"identifier": "338",
				"is24Hour": false,
				"isCAC": false,
				"isFullWeek": true,
				"isSAG": true,
				"isStore": false,
				"lat": 1.38485,
				"long": 103.74505,
				"name": "Lot 1 Shoppers' Mall",
				"phone": "+6567665009",
				"postalCode": "689812",
				"serviceType": "STL",
				"sngBusinessHours": "",
				"storeType": "FairPrice",
				"toTime": "23:00:00",
				"toTimeExtra": "23:00:00",
				"zoneId": "West"
			},
			{
				"active": 1,
				"address": "71 Woodlands Ave 3 #01-01, Marsiling MRT Station, 739044",
				"address1": "#01-01,Marsiling Mrt Station,71 Woodlands Ave 3,739044",
				"address2": "Marsiling Mrt Station",
				"address3": "#01-01",
				"fax": "63631862",
				"fromTime": "07:00:00",
				"fromTimeExtra": "07:00:00",
				"id": "102",
				"identifier": "339",
				"is24Hour": false,
				"isCAC": true,
				"isFullWeek": true,
				"isSAG": true,
				"isStore": false,
				"lat": 1.43256,
				"long": 103.77416,
				"name": "Marsiling MRT Station",
				"phone": "+6563631861",
				"postalCode": "739044",
				"serviceType": "STL",
				"sngBusinessHours": "",
				"storeType": "FairPrice",
				"toTime": "11:30:00",
				"toTimeExtra": "11:30:00",
				"zoneId": "North"
			},
			{
				"active": 1,
				"address": "No. 6 Marine Parade Central, 449411",
				"address1": "6 Marine Parade Central,449411",
				"address2": "",
				"address3": "",
				"fax": "63454282",
				"fromTime": "08:00:00",
				"fromTimeExtra": "08:00:00",
				"id": "103",
				"identifier": "340",
				"is24Hour": false,
				"isCAC": true,
				"isFullWeek": true,
				"isSAG": true,
				"isStore": false,
				"lat": 1.30153,
				"long": 103.90699,
				"name": "Marine Parade",
				"phone": "+6563480826",
				"postalCode": "449411",
				"serviceType": "STL",
				"sngBusinessHours": "",
				"storeType": "FairPrice Finest",
				"toTime": "23:00:00",
				"toTimeExtra": "23:00:00",
				"zoneId": "East"
			},
			{
				"active": 1,
				"address": "Blk 57 New Upper Changi Rd, #01-1334/1336/1338, 461057 ",
				"address1": "#01-1334/1336/1338,57 New Upper Changi Road,461057",
				"address2": "",
				"address3": "#01-1334/1336/1338",
				"fax": "",
				"fromTime": "00:00:00",
				"fromTimeExtra": "00:00:00",
				"id": "104",
				"identifier": "341",
				"is24Hour": false,
				"isCAC": false,
				"isFullWeek": true,
				"isSAG": true,
				"isStore": false,
				"lat": 1.32435,
				"long": 103.94151,
				"name": "New Upper Changi",
				"phone": "+6562418927",
				"postalCode": "461057",
				"serviceType": "STL",
				"sngBusinessHours": "",
				"storeType": "FairPrice",
				"toTime": "23:59:59",
				"toTimeExtra": "23:59:59",
				"zoneId": "East"
			},
			{
				"active": 1,
				"address": "Blk 152B Serangoon North Ave 1, #01-384, 552152 ",
				"address1": "#01-384,152B Serangoon North Ave 1,552152",
				"address2": "",
				"address3": "#01-384",
				"fax": "62861967",
				"fromTime": "00:00:00",
				"fromTimeExtra": "00:00:00",
				"id": "105",
				"identifier": "352",
				"is24Hour": false,
				"isCAC": false,
				"isFullWeek": true,
				"isSAG": true,
				"isStore": false,
				"lat": 1.36932,
				"long": 103.87309,
				"name": "Serangoon North Ave 1",
				"phone": "+6562860057",
				"postalCode": "552152",
				"serviceType": "",
				"sngBusinessHours": "",
				"storeType": "FairPrice",
				"toTime": "23:59:59",
				"toTimeExtra": "23:59:59",
				"zoneId": "North-East"
			},
			{
				"active": 1,
				"address": "Blk 475 Tampines St 44, #01-145, 520475",
				"address1": "#01-145,475 Tampines Street 44,520475",
				"address2": "",
				"address3": "#01-145",
				"fax": "67875249",
				"fromTime": "00:00:00",
				"fromTimeExtra": "00:00:00",
				"id": "107",
				"identifier": "357",
				"is24Hour": false,
				"isCAC": false,
				"isFullWeek": true,
				"isSAG": true,
				"isStore": false,
				"lat": 1.36032,
				"long": 103.95315,
				"name": "Tampines Blk 475",
				"phone": "+6567875228",
				"postalCode": "520475",
				"serviceType": "STL",
				"sngBusinessHours": "",
				"storeType": "FairPrice",
				"toTime": "23:59:59",
				"toTimeExtra": "23:59:59",
				"zoneId": "East"
			},
			{
				"active": 1,
				"address": "4 Tampines Central 5, #B1-12 Tampines Mall, 529510",
				"address1": "#B1-12,Tampines Mall,4 Tampines Central 5,529510",
				"address2": "Tampines Mall",
				"address3": "#B1-12",
				"fax": "67865234",
				"fromTime": "08:00:00",
				"fromTimeExtra": "08:00:00",
				"id": "108",
				"identifier": "358",
				"is24Hour": false,
				"isCAC": false,
				"isFullWeek": true,
				"isSAG": true,
				"isStore": false,
				"lat": 1.35266,
				"long": 103.94525,
				"name": "Tampines Mall",
				"phone": "+6567861953",
				"postalCode": "529510",
				"serviceType": "STL",
				"sngBusinessHours": "",
				"storeType": "FairPrice",
				"toTime": "23:00:00",
				"toTimeExtra": "23:00:00",
				"zoneId": "East"
			},
			{
				"active": 1,
				"address": "Blk 78A Telok Blangah St 32, #01-01/02, 101078 ",
				"address1": "#01-01/02,78A Telok Blangah Street 32,100078",
				"address2": "",
				"address3": "#01-01/02",
				"fax": "",
				"fromTime": "00:00:00",
				"fromTimeExtra": "00:00:00",
				"id": "109",
				"identifier": "359",
				"is24Hour": false,
				"isCAC": false,
				"isFullWeek": true,
				"isSAG": true,
				"isStore": false,
				"lat": 1.27351,
				"long": 103.80902,
				"name": "Telok Blangah",
				"phone": "+6562704201",
				"postalCode": "101078",
				"serviceType": "STL",
				"sngBusinessHours": "",
				"storeType": "FairPrice",
				"toTime": "23:59:59",
				"toTimeExtra": "23:59:59",
				"zoneId": "Central"
			},
			{
				"active": 1,
				"address": "Blk 37 Teban Garden Rd, #01-304/305/306, 600037 ",
				"address1": "#01-304/305/306,37 Teban Garden Road,600037",
				"address2": "",
				"address3": "#01-304/305/306",
				"fax": "",
				"fromTime": "00:00:00",
				"fromTimeExtra": "00:00:00",
				"id": "110",
				"identifier": "360",
				"is24Hour": false,
				"isCAC": false,
				"isFullWeek": true,
				"isSAG": true,
				"isStore": false,
				"lat": 1.32059,
				"long": 103.7425,
				"name": "Teban Garden",
				"phone": "+6565617073",
				"postalCode": "600037",
				"serviceType": "STL",
				"sngBusinessHours": "",
				"storeType": "FairPrice",
				"toTime": "23:59:59",
				"toTimeExtra": "23:59:59",
				"zoneId": "West"
			},
			{
				"active": 1,
				"address": "Blk 1 Tanjong Pagar Plaza, #01-01, 082001 ",
				"address1": "#01-01,1 Tanjong Pagar Plaza,082001",
				"address2": "",
				"address3": "#01-01",
				"fax": "62245761",
				"fromTime": "00:00:00",
				"fromTimeExtra": "00:00:00",
				"id": "111",
				"identifier": "361",
				"is24Hour": false,
				"isCAC": false,
				"isFullWeek": true,
				"isSAG": true,
				"isStore": false,
				"lat": 1.27581,
				"long": 103.84284,
				"name": "Tanjong Pagar Plaza",
				"phone": "+6562245703",
				"postalCode": "82001",
				"serviceType": "STL",
				"sngBusinessHours": "",
				"storeType": "FairPrice",
				"toTime": "23:59:59",
				"toTimeExtra": "23:59:59",
				"zoneId": "North-East"
			},
			{
				"active": 1,
				"address": "301 Upper Thomson Rd #03-37/38 Thomson Plaza, 574408",
				"address1": "#03-37/38,Thomson Plaza,301 Upper Thomson,574408",
				"address2": "Thomson Plaza",
				"address3": "#03-37/38",
				"fax": "64545349",
				"fromTime": "08:00:00",
				"fromTimeExtra": "08:00:00",
				"id": "112",
				"identifier": "362",
				"is24Hour": false,
				"isCAC": true,
				"isFullWeek": true,
				"isSAG": true,
				"isStore": false,
				"lat": 1.35464,
				"long": 103.83094,
				"name": "Thomson Plaza",
				"phone": "+6564547738",
				"postalCode": "574408",
				"serviceType": "STL",
				"sngBusinessHours": "",
				"storeType": "FairPrice Finest",
				"toTime": "23:00:00",
				"toTimeExtra": "23:00:00",
				"zoneId": "North-East"
			},
			{
				"active": 1,
				"address": "Taman Jurong Shopping Centre,Blk 399 Yung Sheng Rd #01-35, 610399 ",
				"address1": "#01-35,Taman Jurong Shopping Centre,399 Yung Sheng Road,610399",
				"address2": "Taman Jurong Shopping Centre",
				"address3": "#01-35",
				"fax": "62663044",
				"fromTime": "00:00:00",
				"fromTimeExtra": "00:00:00",
				"id": "113",
				"identifier": "363",
				"is24Hour": false,
				"isCAC": false,
				"isFullWeek": true,
				"isSAG": true,
				"isStore": false,
				"lat": 1.33477,
				"long": 103.72105,
				"name": "Taman Jurong Shopping Centre",
				"phone": "+6562664822",
				"postalCode": "610399",
				"serviceType": "STL",
				"sngBusinessHours": "",
				"storeType": "FairPrice",
				"toTime": "23:59:59",
				"toTimeExtra": "23:59:59",
				"zoneId": "West"
			},
			{
				"active": 1,
				"address": "Blk 888 Woodlands Dr 50, #01-757, 730888",
				"address1": "#01-757,888 Woodlands Drive 50,730888",
				"address2": "",
				"address3": "#01-757",
				"fax": "63681760",
				"fromTime": "00:00:00",
				"fromTimeExtra": "00:00:00",
				"id": "114",
				"identifier": "365",
				"is24Hour": false,
				"isCAC": true,
				"isFullWeek": true,
				"isSAG": true,
				"isStore": false,
				"lat": 1.4377,
				"long": 103.79527,
				"name": "Woodlands 888",
				"phone": "+6563687756",
				"postalCode": "730888",
				"serviceType": "STL",
				"sngBusinessHours": "",
				"storeType": "FairPrice",
				"toTime": "23:59:59",
				"toTimeExtra": "23:59:59",
				"zoneId": "North"
			},
			{
				"active": 1,
				"address": "1 Pasir Ris Central St 3, #B1-10 Whitesands, 518457",
				"address1": "#B1-10,Whitesands,1 Pasir Ris Central Street 3,518457",
				"address2": "Whitesands",
				"address3": "#B1-10",
				"fax": "65850540",
				"fromTime": "08:00:00",
				"fromTimeExtra": "08:00:00",
				"id": "115",
				"identifier": "367",
				"is24Hour": false,
				"isCAC": true,
				"isFullWeek": true,
				"isSAG": true,
				"isStore": false,
				"lat": 1.37257,
				"long": 103.95053,
				"name": "Whitesands",
				"phone": "+6565850536",
				"postalCode": "518457",
				"serviceType": "STL",
				"sngBusinessHours": "",
				"storeType": "FairPrice",
				"toTime": "23:00:00",
				"toTimeExtra": "23:00:00",
				"zoneId": "East"
			},
			{
				"active": 1,
				"address": "Blk 63/66 Yung Kuang Rd, #01-119/#02-119, 610063",
				"address1": "#01-119/#02-119,63/66 Yung Kuang Road,610063",
				"address2": "",
				"address3": "#01-119/#02-119",
				"fax": "62655183",
				"fromTime": "08:00:00",
				"fromTimeExtra": "08:00:00",
				"id": "116",
				"identifier": "368",
				"is24Hour": false,
				"isCAC": false,
				"isFullWeek": true,
				"isSAG": true,
				"isStore": false,
				"lat": 1.332,
				"long": 103.72252,
				"name": "Yung Kuang",
				"phone": "+6562655800",
				"postalCode": "610063",
				"serviceType": "STL",
				"sngBusinessHours": "",
				"storeType": "FairPrice",
				"toTime": "22:00:00",
				"toTimeExtra": "22:00:00",
				"zoneId": "West"
			},
			{
				"active": 1,
				"address": "301 Yishun Ave 2, #01-02, Yishun MRT Station, 769093",
				"address1": "#01-02,Yishun Mrt Station,301 Yishun Ave 2,769093",
				"address2": "Yishun Mrt Station",
				"address3": "#01-02",
				"fax": "67557705",
				"fromTime": "07:00:00",
				"fromTimeExtra": "07:00:00",
				"id": "117",
				"identifier": "369",
				"is24Hour": false,
				"isCAC": false,
				"isFullWeek": true,
				"isSAG": true,
				"isStore": false,
				"lat": 1.42939,
				"long": 103.83509,
				"name": "Yishun MRT",
				"phone": "+6567554233",
				"postalCode": "769093",
				"serviceType": "STL",
				"sngBusinessHours": "",
				"storeType": "FairPrice",
				"toTime": "23:30:00",
				"toTimeExtra": "23:30:00",
				"zoneId": "North"
			},
			{
				"active": 1,
				"address": "No.1 Hougang St 91, #02-01 Hougang 1, 538692",
				"address1": "#02-01,Hougang 1,1 Hougang Street 91,538692",
				"address2": "Hougang 1",
				"address3": "#02-01",
				"fax": "68810134",
				"fromTime": "07:00:00",
				"fromTimeExtra": "07:00:00",
				"id": "118",
				"identifier": "371",
				"is24Hour": false,
				"isCAC": false,
				"isFullWeek": true,
				"isSAG": true,
				"isStore": false,
				"lat": 1.37602,
				"long": 103.87948,
				"name": "Hougang One",
				"phone": "+6568810013",
				"postalCode": "538692",
				"serviceType": "STL",
				"sngBusinessHours": "",
				"storeType": "FairPrice Xtra",
				"toTime": "23:00:00",
				"toTimeExtra": "23:00:00",
				"zoneId": "North-East"
			},
			{
				"active": 1,
				"address": "118 Rivervale Dr #01-08, Rivervale Plaza, 540118 ",
				"address1": "#01-08,Rivervale Plaza,118 Rivervale Drive,540118",
				"address2": "Rivervale Plaza",
				"address3": "#01-08",
				"fax": "68810552",
				"fromTime": "00:00:00",
				"fromTimeExtra": "00:00:00",
				"id": "119",
				"identifier": "391",
				"is24Hour": false,
				"isCAC": false,
				"isFullWeek": true,
				"isSAG": true,
				"isStore": false,
				"lat": 1.38543,
				"long": 103.90158,
				"name": "Rivervale Plaza",
				"phone": "+6568810551",
				"postalCode": "540118",
				"serviceType": "STL",
				"sngBusinessHours": "",
				"storeType": "FairPrice",
				"toTime": "23:59:59",
				"toTimeExtra": "23:59:59",
				"zoneId": "North-East"
			},
			{
				"active": 1,
				"address": "11 Rivervale Crescent, #03-01 Rivervale Mall, 545082",
				"address1": "#03-01,Rivervale Mall,11 Rivervale Crescent,545082",
				"address2": "Rivervale Mall",
				"address3": "#03-01",
				"fax": "63844709",
				"fromTime": "08:00:00",
				"fromTimeExtra": "08:00:00",
				"id": "120",
				"identifier": "395",
				"is24Hour": false,
				"isCAC": true,
				"isFullWeek": true,
				"isSAG": true,
				"isStore": false,
				"lat": 1.392,
				"long": 103.90498,
				"name": "Rivervale Mall",
				"phone": "+6563844711",
				"postalCode": "545082",
				"serviceType": "STL",
				"sngBusinessHours": "",
				"storeType": "FairPrice",
				"toTime": "22:00:00",
				"toTimeExtra": "22:00:00",
				"zoneId": "North-East"
			},
			{
				"active": 1,
				"address": "Blk 500 Lorong 6 Toa Payoh, #B1-32/#01-33, 310500",
				"address1": "#B1-32/#01-33,500 Toa Payoh Lorong 6,310500",
				"address2": "",
				"address3": "#B1-32/#01-33",
				"fax": "62505270",
				"fromTime": "07:00:00",
				"fromTimeExtra": "07:00:00",
				"id": "122",
				"identifier": "397",
				"is24Hour": false,
				"isCAC": false,
				"isFullWeek": true,
				"isSAG": true,
				"isStore": false,
				"lat": 1.33301,
				"long": 103.84706,
				"name": "Toa Payoh HDB Hub",
				"phone": "+6562506009",
				"postalCode": "310500",
				"serviceType": "STL",
				"sngBusinessHours": "",
				"storeType": "FairPrice",
				"toTime": "23:59:00",
				"toTimeExtra": "23:59:00",
				"zoneId": "Central"
			},
			{
				"active": 1,
				"address": "Blk 849 Yishun Ring Rd, #01-3701/#01-3703, 760849 ",
				"address1": "#01-3701/3703,849 Yishun Ring Road,760849",
				"address2": "",
				"address3": "#01-3701/3703",
				"fax": "67550976",
				"fromTime": "00:00:00",
				"fromTimeExtra": "00:00:00",
				"id": "123",
				"identifier": "398",
				"is24Hour": false,
				"isCAC": false,
				"isFullWeek": true,
				"isSAG": true,
				"isStore": false,
				"lat": 1.41678,
				"long": 103.83536,
				"name": "Khatib",
				"phone": "+6567550955",
				"postalCode": "760849",
				"serviceType": "STL",
				"sngBusinessHours": "",
				"storeType": "FairPrice",
				"toTime": "23:59:59",
				"toTimeExtra": "23:59:59",
				"zoneId": "North"
			},
			{
				"active": 1,
				"address": "131 Killiney Rd #01-01/02/03, Orchard Grand Court, 239571 ",
				"address1": "#01-01/02/03,Orchard Grand Court,131 Killiney Road,239571",
				"address2": "Orchard Grand Court",
				"address3": "#01-01/02/03",
				"fax": "",
				"fromTime": "00:00:00",
				"fromTimeExtra": "00:00:00",
				"id": "124",
				"identifier": "400",
				"is24Hour": false,
				"isCAC": false,
				"isFullWeek": true,
				"isSAG": true,
				"isStore": false,
				"lat": 1.2974264272017,
				"long": 103.8383988637543,
				"name": "Orchard Grand Court",
				"phone": "+6567344450",
				"postalCode": "239571",
				"serviceType": "STL",
				"sngBusinessHours": "",
				"storeType": "FairPrice",
				"toTime": "23:59:59",
				"toTimeExtra": "23:59:59",
				"zoneId": "Central"
			},
			{
				"active": 1,
				"address": "9 Bishan Place #B1-01 Junction 8 Shopping Centre, 579837",
				"address1": "#B1-01,Junction 8 Shopping Centre,9 Bishan Place,579837",
				"address2": "Junction 8 Shopping Centre",
				"address3": "#B1-01",
				"fax": "62594437",
				"fromTime": "08:00:00",
				"fromTimeExtra": "08:00:00",
				"id": "125",
				"identifier": "402",
				"is24Hour": false,
				"isCAC": false,
				"isFullWeek": true,
				"isSAG": true,
				"isStore": false,
				"lat": 1.34997,
				"long": 103.84879,
				"name": "Junction 8",
				"phone": "+6562590461",
				"postalCode": "579837",
				"serviceType": "STL",
				"sngBusinessHours": "",
				"storeType": "FairPrice Finest",
				"toTime": "23:00:00",
				"toTimeExtra": "23:00:00",
				"zoneId": "North-East"
			},
			{
				"active": 1,
				"address": "30 Woodlands Ave 1 #01-11 The Woodgrove, 739065 ",
				"address1": "#01-11,The Woodgrove,30 Woodlands Ave 1,739065",
				"address2": "The Woodgrove",
				"address3": "#01-11",
				"fax": "68939576",
				"fromTime": "00:00:00",
				"fromTimeExtra": "00:00:00",
				"id": "126",
				"identifier": "403",
				"is24Hour": false,
				"isCAC": true,
				"isFullWeek": true,
				"isSAG": true,
				"isStore": false,
				"lat": 1.42872,
				"long": 103.78114,
				"name": "The Woodgrove",
				"phone": "+6568931203",
				"postalCode": "739065",
				"serviceType": "STL",
				"sngBusinessHours": "",
				"storeType": "FairPrice Finest",
				"toTime": "23:59:59",
				"toTimeExtra": "23:59:59",
				"zoneId": "North"
			},
			{
				"active": 1,
				"address": "Blk 280 Bukit Batok East Ave 3, #01-315, 650280 ",
				"address1": "#01-315,280 Bukit Batok East Ave 3,650280",
				"address2": "",
				"address3": "#01-315",
				"fax": "",
				"fromTime": "00:00:00",
				"fromTimeExtra": "00:00:00",
				"id": "127",
				"identifier": "405",
				"is24Hour": false,
				"isCAC": false,
				"isFullWeek": true,
				"isSAG": true,
				"isStore": false,
				"lat": 1.34767,
				"long": 103.7572,
				"name": "Bukit Batok East",
				"phone": "+6565610042",
				"postalCode": "650280",
				"serviceType": "STL",
				"sngBusinessHours": "",
				"storeType": "FairPrice",
				"toTime": "23:59:59",
				"toTimeExtra": "23:59:59",
				"zoneId": "West"
			},
			{
				"active": 1,
				"address": "Blk 628 Senja Rd #01-01, Senja Grand, 670628",
				"address1": "#01-01,Senja Grand,628 Senja Road,670628",
				"address2": "Senja Grand",
				"address3": "#01-01",
				"fax": "",
				"fromTime": "00:00:00",
				"fromTimeExtra": "00:00:00",
				"id": "128",
				"identifier": "406",
				"is24Hour": false,
				"isCAC": false,
				"isFullWeek": true,
				"isSAG": true,
				"isStore": false,
				"lat": 1.38519,
				"long": 103.76016,
				"name": "Senja Grand",
				"phone": "+6567631076",
				"postalCode": "670628",
				"serviceType": "STL",
				"sngBusinessHours": "",
				"storeType": "FairPrice",
				"toTime": "23:59:59",
				"toTimeExtra": "23:59:59",
				"zoneId": "West"
			},
			{
				"active": 1,
				"address": "Blk 57 Dawson Rd, #01-07 Dawson Place, 142057 ",
				"address1": "#01-07,Dawson Place,57 Dawson Road,142057",
				"address2": "Dawson Place",
				"address3": "#01-07",
				"fax": "64792427",
				"fromTime": "00:00:00",
				"fromTimeExtra": "00:00:00",
				"id": "129",
				"identifier": "407",
				"is24Hour": false,
				"isCAC": true,
				"isFullWeek": true,
				"isSAG": true,
				"isStore": false,
				"lat": 1.2928,
				"long": 103.81093,
				"name": "Dawson Place",
				"phone": "+6564764471",
				"postalCode": "142057",
				"serviceType": "STL",
				"sngBusinessHours": "",
				"storeType": "FairPrice",
				"toTime": "23:59:59",
				"toTimeExtra": "23:59:59",
				"zoneId": "Central"
			},
			{
				"active": 1,
				"address": "302 Tiong Bahru Rd #B1-01/02 Tiong Bahru Plaza, 168732",
				"address1": "#B1-01/02,Tiong Bahru Plaza,302 Tiong Bahru Road,168732",
				"address2": "Tiong Bahru Plaza",
				"address3": "#B1-01/02",
				"fax": "62700119",
				"fromTime": "08:00:00",
				"fromTimeExtra": "08:00:00",
				"id": "130",
				"identifier": "408",
				"is24Hour": false,
				"isCAC": false,
				"isFullWeek": true,
				"isSAG": true,
				"isStore": false,
				"lat": 1.28615,
				"long": 103.82734,
				"name": "Tiong Bahru Plaza",
				"phone": "+6562700913",
				"postalCode": "168732",
				"serviceType": "STL",
				"sngBusinessHours": "",
				"storeType": "FairPrice Finest",
				"toTime": "23:00:00",
				"toTimeExtra": "23:00:00",
				"zoneId": "Central"
			},
			{
				"active": 1,
				"address": "Blk 108 Depot Rd #01-01, Depot Heights Shopping Centre, 100108",
				"address1": "#01-01,Depot Heights Shopping Centre,108 Depot Road,100108",
				"address2": "Depot Heights Shopping Centre",
				"address3": "#01-01",
				"fax": "",
				"fromTime": "08:00:00",
				"fromTimeExtra": "08:00:00",
				"id": "131",
				"identifier": "409",
				"is24Hour": false,
				"isCAC": false,
				"isFullWeek": true,
				"isSAG": true,
				"isStore": false,
				"lat": 1.28124,
				"long": 103.81034,
				"name": "Depot",
				"phone": "+6562729697",
				"postalCode": "100108",
				"serviceType": "STL",
				"sngBusinessHours": "",
				"storeType": "FairPrice",
				"toTime": "23:00:00",
				"toTimeExtra": "23:00:00",
				"zoneId": "Central"
			},
			{
				"active": 1,
				"address": "Blk 168 Punggol Field Rd, Punggol Plaza #03-01/02, 820168",
				"address1": "#03-01/02,Punggol Plaza,168 Punggol Field Road,820168",
				"address2": "Punggol Plaza",
				"address3": "#03-01/02",
				"fax": "63129880",
				"fromTime": "07:00:00",
				"fromTimeExtra": "07:00:00",
				"id": "132",
				"identifier": "410",
				"is24Hour": false,
				"isCAC": true,
				"isFullWeek": true,
				"isSAG": true,
				"isStore": false,
				"lat": 1.40511,
				"long": 103.90867,
				"name": "Punggol Plaza",
				"phone": "+6563129091",
				"postalCode": "820168",
				"serviceType": "STL",
				"sngBusinessHours": "",
				"storeType": "FairPrice",
				"toTime": "23:00:00",
				"toTimeExtra": "23:00:00",
				"zoneId": "North-East"
			},
			{
				"active": 1,
				"address": "Blk 138 Tampines St 11, #01-136, 521138 ",
				"address1": "#01-136,138 Tampines Street 11,521138",
				"address2": "",
				"address3": "#01-136",
				"fax": "",
				"fromTime": "00:00:00",
				"fromTimeExtra": "00:00:00",
				"id": "133",
				"identifier": "413",
				"is24Hour": false,
				"isCAC": false,
				"isFullWeek": true,
				"isSAG": true,
				"isStore": false,
				"lat": 1.3458,
				"long": 103.94562,
				"name": "Tampines Blk 138",
				"phone": "+6567810648",
				"postalCode": "521138",
				"serviceType": "STL",
				"sngBusinessHours": "",
				"storeType": "FairPrice",
				"toTime": "23:59:59",
				"toTimeExtra": "23:59:59",
				"zoneId": "East"
			},
			{
				"active": 1,
				"address": "Blk 29B Chai Chee Avenue, #01-62, 462029 ",
				"address1": "#01-62,29B Chai Chee Ave,462029",
				"address2": "",
				"address3": "#01-62",
				"fax": "",
				"fromTime": "00:00:00",
				"fromTimeExtra": "00:00:00",
				"id": "134",
				"identifier": "414",
				"is24Hour": false,
				"isCAC": false,
				"isFullWeek": true,
				"isSAG": true,
				"isStore": false,
				"lat": 1.32395,
				"long": 103.92388,
				"name": "Chai Chee",
				"phone": "+6564432578",
				"postalCode": "462029",
				"serviceType": "STL",
				"sngBusinessHours": "",
				"storeType": "FairPrice",
				"toTime": "23:59:59",
				"toTimeExtra": "23:59:59",
				"zoneId": "East"
			},
			{
				"active": 1,
				"address": "Blk 253 Serangoon Central Drive, #01-241, 550253 ",
				"address1": "#01-241,253 Serangoon Central Drive,550253",
				"address2": "",
				"address3": "#01-241",
				"fax": "",
				"fromTime": "00:00:00",
				"fromTimeExtra": "00:00:00",
				"id": "135",
				"identifier": "415",
				"is24Hour": false,
				"isCAC": false,
				"isFullWeek": true,
				"isSAG": true,
				"isStore": false,
				"lat": 1.35371,
				"long": 103.87091,
				"name": "Serangoon Central",
				"phone": "+6562891647",
				"postalCode": "550253",
				"serviceType": "STL",
				"sngBusinessHours": "",
				"storeType": "FairPrice",
				"toTime": "23:59:59",
				"toTimeExtra": "23:59:59",
				"zoneId": "North-East"
			},
			{
				"active": 1,
				"address": "934 East Coast Road, Siglap New Market, 459125 ",
				"address1": "Siglap New Market,934 East Coast Road,459125",
				"address2": "",
				"address3": "#02-3531",
				"fax": "",
				"fromTime": "00:00:00",
				"fromTimeExtra": "00:00:00",
				"id": "136",
				"identifier": "417",
				"is24Hour": false,
				"isCAC": false,
				"isFullWeek": true,
				"isSAG": true,
				"isStore": false,
				"lat": 1.31205,
				"long": 103.92496,
				"name": "Siglap New Market",
				"phone": "+6564484285",
				"postalCode": "459125",
				"serviceType": "STL",
				"sngBusinessHours": "",
				"storeType": "FairPrice",
				"toTime": "23:59:59",
				"toTimeExtra": "23:59:59",
				"zoneId": "East"
			},
			{
				"active": 1,
				"address": "Blk 734 Pasir Ris St 72 #01-37, Pasir Ris West Plaza, 510734 ",
				"address1": "#01-37,Pasir Ris West Plaza,734 Pasir Ris Street 72,510734",
				"address2": "Pasir Ris West Plaza",
				"address3": "#01-37",
				"fax": "65813845",
				"fromTime": "00:00:00",
				"fromTimeExtra": "00:00:00",
				"id": "137",
				"identifier": "419",
				"is24Hour": false,
				"isCAC": false,
				"isFullWeek": true,
				"isSAG": true,
				"isStore": false,
				"lat": 1.37986,
				"long": 103.93618,
				"name": "Pasir Ris West Plaza",
				"phone": "+6565812886",
				"postalCode": "510734",
				"serviceType": "STL",
				"sngBusinessHours": "",
				"storeType": "FairPrice",
				"toTime": "23:59:59",
				"toTimeExtra": "23:59:59",
				"zoneId": "East"
			},
			{
				"active": 1,
				"address": "53 Ang Mo Kio Ave 3, #B2-40 Ang Mo Kio Hub, 569933",
				"address1": "#B2-40,Ang Mo Kio Hub,53 Ang Mo Kio Ave 3,569933",
				"address2": "",
				"address3": "#01-77/79",
				"fax": "64531741",
				"fromTime": "00:00:00",
				"fromTimeExtra": "00:00:00",
				"id": "138",
				"identifier": "420",
				"is24Hour": false,
				"isCAC": false,
				"isFullWeek": true,
				"isSAG": true,
				"isStore": false,
				"lat": 1.3694,
				"long": 103.84791,
				"name": "AMK Hub",
				"phone": "+6564532521",
				"postalCode": "569933",
				"serviceType": "STL",
				"sngBusinessHours": "",
				"storeType": "FairPrice Xtra",
				"toTime": "23:59:59",
				"toTimeExtra": "23:59:59",
				"zoneId": "North-East"
			},
			{
				"active": 1,
				"address": "10 Sinaran Dr #04-46/47/48/49, Square 2, 307506",
				"address1": "#04-46/47/48/49,Square 2,10 Sinaran Drive,307506",
				"address2": "Square 2",
				"address3": "#04-46/47/48/49",
				"fax": "63976428",
				"fromTime": "09:00:00",
				"fromTimeExtra": "09:00:00",
				"id": "139",
				"identifier": "421",
				"is24Hour": false,
				"isCAC": false,
				"isFullWeek": true,
				"isSAG": true,
				"isStore": false,
				"lat": 1.32076,
				"long": 103.84418,
				"name": "Square 2",
				"phone": "+6563976432",
				"postalCode": "307506",
				"serviceType": "STL",
				"sngBusinessHours": "",
				"storeType": "FairPrice",
				"toTime": "22:00:00",
				"toTimeExtra": "22:00:00",
				"zoneId": "Central"
			},
			{
				"active": 1,
				"address": "Blk 866A Tampines St. 83, #01-01, 521866",
				"address1": "#01-01,866A Tampines Street 83,521866",
				"address2": "",
				"address3": "#01-01",
				"fax": "65876836",
				"fromTime": "07:00:00",
				"fromTimeExtra": "07:00:00",
				"id": "140",
				"identifier": "422",
				"is24Hour": false,
				"isCAC": false,
				"isFullWeek": true,
				"isSAG": true,
				"isStore": false,
				"lat": 1.35551,
				"long": 103.93446,
				"name": "Tampines CC",
				"phone": "+6567852162",
				"postalCode": "521866",
				"serviceType": "STL",
				"sngBusinessHours": "",
				"storeType": "FairPrice",
				"toTime": "23:00:00",
				"toTimeExtra": "23:00:00",
				"zoneId": "East"
			},
			{
				"active": 1,
				"address": "Blk 43 Cambridge Road, #01-15, 210043",
				"address1": "#01-15,43 Cambridge Road,210043",
				"address2": "",
				"address3": "#01-15",
				"fax": "",
				"fromTime": "07:00:00",
				"fromTimeExtra": "07:00:00",
				"id": "141",
				"identifier": "423",
				"is24Hour": false,
				"isCAC": false,
				"isFullWeek": true,
				"isSAG": true,
				"isStore": false,
				"lat": 1.31535,
				"long": 103.84943,
				"name": "Cambridge Blk 43",
				"phone": "+6562961552",
				"postalCode": "210043",
				"serviceType": "STL",
				"sngBusinessHours": "",
				"storeType": "FairPrice",
				"toTime": "23:00:00",
				"toTimeExtra": "23:00:00",
				"zoneId": "Central"
			},
			{
				"active": 1,
				"address": "e! Hub Downtown East, 1 Pasir Ris Close #02-127, 519599",
				"address1": "#02-127,E Hub Downtown East,1 Pasir Ris Close,519599",
				"address2": "Bukit Timah Plaza",
				"address3": "#B1-01 \u0026 #B2-01",
				"fax": "65812915",
				"fromTime": "08:00:00",
				"fromTimeExtra": "08:00:00",
				"id": "142",
				"identifier": "424",
				"is24Hour": false,
				"isCAC": false,
				"isFullWeek": true,
				"isSAG": true,
				"isStore": false,
				"lat": 1.3758935232747,
				"long": 103.9556476441803,
				"name": "Downtown East",
				"phone": "+6565815176",
				"postalCode": "519599",
				"serviceType": "STL",
				"sngBusinessHours": "",
				"storeType": "FairPrice",
				"toTime": "23:00:00",
				"toTimeExtra": "23:00:00",
				"zoneId": "East"
			},
			{
				"active": 1,
				"address": "Blk 170 Stirling Road, #01-1147, 140170",
				"address1": "#01-1147,170 Stirling Road,140170",
				"address2": "",
				"address3": "#B1-09/10/11",
				"fax": "",
				"fromTime": "08:00:00",
				"fromTimeExtra": "08:00:00",
				"id": "143",
				"identifier": "425",
				"is24Hour": false,
				"isCAC": false,
				"isFullWeek": true,
				"isSAG": true,
				"isStore": false,
				"lat": 1.29088,
				"long": 103.8029,
				"name": "Stirling Road",
				"phone": "+6564724611",
				"postalCode": "140170",
				"serviceType": "STL",
				"sngBusinessHours": "",
				"storeType": "FairPrice",
				"toTime": "23:00:00",
				"toTimeExtra": "23:00:00",
				"zoneId": "Central"
			},
			{
				"active": 1,
				"address": "Blk 41 Jalan Tiga, #01-05, 390041 ",
				"address1": "#01-05,41 Jalan Tiga,390041",
				"address2": "",
				"address3": "#01-05",
				"fax": "",
				"fromTime": "00:00:00",
				"fromTimeExtra": "00:00:00",
				"id": "144",
				"identifier": "426",
				"is24Hour": false,
				"isCAC": false,
				"isFullWeek": true,
				"isSAG": true,
				"isStore": false,
				"lat": 1.30796,
				"long": 103.88465,
				"name": "Jalan Tiga",
				"phone": "+6562425707",
				"postalCode": "390041",
				"serviceType": "STL",
				"sngBusinessHours": "",
				"storeType": "FairPrice",
				"toTime": "23:59:59",
				"toTimeExtra": "23:59:59",
				"zoneId": "Central"
			},
			{
				"active": 1,
				"address": "#01-33,Neptune Court,10 Marine Vista,449034",
				"address1": "#01-33,Neptune Court,10 Marine Vista,449034",
				"address2": "Neptune Court",
				"address3": "#01-33",
				"fax": "",
				"fromTime": "07:00:00",
				"fromTimeExtra": "07:00:00",
				"id": "145",
				"identifier": "865",
				"is24Hour": false,
				"isCAC": false,
				"isFullWeek": true,
				"isSAG": false,
				"isStore": true,
				"lat": 1.30693,
				"long": 103.92127,
				"name": "NEPTUNE COURT CHEERS",
				"phone": "+6562419105",
				"postalCode": "449034",
				"serviceType": "",
				"sngBusinessHours": "",
				"storeType": "Click and Collect",
				"toTime": "22:50:00",
				"toTimeExtra": "22:50:00",
				"zoneId": "East"
			},
			{
				"active": 1,
				"address": "Blk 107 Tampines St 11, #01-353/355/357/359, 521107 ",
				"address1": "#01-353/355/357/359,Blk 107 Tampines Street 11,521107",
				"address2": "",
				"address3": "#01-353/355/357/359",
				"fax": "",
				"fromTime": "00:00:00",
				"fromTimeExtra": "00:00:00",
				"id": "146",
				"identifier": "356",
				"is24Hour": false,
				"isCAC": false,
				"isFullWeek": true,
				"isSAG": true,
				"isStore": true,
				"lat": 1.34837,
				"long": 103.94801,
				"name": "Tampines St 11",
				"phone": "+6567819306",
				"postalCode": "521107",
				"serviceType": "",
				"sngBusinessHours": "",
				"storeType": "Click and Collect",
				"toTime": "23:59:59",
				"toTimeExtra": "23:59:59",
				"zoneId": "East"
			},
			{
				"active": 1,
				"address": "2225 Ang Mo Kio Avenue 8,569810",
				"address1": "2225 Ang Mo Kio Avenue 8,569810",
				"address2": "",
				"address3": "",
				"fax": "67525476",
				"fromTime": "",
				"fromTimeExtra": "",
				"id": "147",
				"identifier": "625",
				"is24Hour": true,
				"isCAC": false,
				"isFullWeek": true,
				"isSAG": false,
				"isStore": true,
				"lat": 1.36255,
				"long": 103.85258,
				"name": "ANG MO KIO AVE 8 FAIRPRICE EXPRESS",
				"phone": "+6565549651",
				"postalCode": "569810",
				"serviceType": "",
				"sngBusinessHours": "",
				"storeType": "Click and Collect",
				"toTime": "",
				"toTimeExtra": "",
				"zoneId": "North-East"
			},
			{
				"active": 1,
				"address": "9 Tampines Ave 7,529619",
				"address1": "9 Tampines Ave 7,529619",
				"address2": "",
				"address3": "",
				"fax": "",
				"fromTime": "",
				"fromTimeExtra": "",
				"id": "148",
				"identifier": "624",
				"is24Hour": true,
				"isCAC": true,
				"isFullWeek": true,
				"isSAG": false,
				"isStore": true,
				"lat": 1.35755,
				"long": 103.95893,
				"name": "TAMPINES AVE 7 FAIRPRICE EXPRESS",
				"phone": "+6567841294",
				"postalCode": "529619",
				"serviceType": "",
				"sngBusinessHours": "",
				"storeType": "Click and Collect",
				"toTime": "",
				"toTimeExtra": "",
				"zoneId": "East"
			},
			{
				"active": 1,
				"address": "239/255 East Coast Road,428932",
				"address1": "239/255 East Coast Road,428932",
				"address2": "",
				"address3": "",
				"fax": "",
				"fromTime": "",
				"fromTimeExtra": "",
				"id": "149",
				"identifier": "604",
				"is24Hour": true,
				"isCAC": true,
				"isFullWeek": true,
				"isSAG": false,
				"isStore": true,
				"lat": 1.30831,
				"long": 103.90799,
				"name": "EAST COAST FAIRPRICE EXPRESS",
				"phone": "+6564403538",
				"postalCode": "428932",
				"serviceType": "",
				"sngBusinessHours": "",
				"storeType": "Click and Collect",
				"toTime": "",
				"toTimeExtra": "",
				"zoneId": "East"
			},
			{
				"active": 1,
				"address": "3551 Ang Mo Kio Avenue  3,569927",
				"address1": "3551 Ang Mo Kio Avenue  3,569927",
				"address2": "Coronation Plaza",
				"address3": "#01-01",
				"fax": "",
				"fromTime": "",
				"fromTimeExtra": "",
				"id": "150",
				"identifier": "627",
				"is24Hour": true,
				"isCAC": false,
				"isFullWeek": true,
				"isSAG": false,
				"isStore": true,
				"lat": 1.3707,
				"long": 103.86408,
				"name": "ANG MO KIO AVE 3 FAIRPRICE EXPRESS",
				"phone": "+6567529314",
				"postalCode": "569927",
				"serviceType": "STL",
				"sngBusinessHours": "",
				"storeType": "Click and Collect",
				"toTime": "",
				"toTimeExtra": "",
				"zoneId": "North-East"
			},
			{
				"active": 1,
				"address": "1 Sophia Road, #01-18, Peace Centre,228149",
				"address1": "1 Sophia Road, #01-18, Peace Centre,228149",
				"address2": "",
				"address3": "",
				"fax": "",
				"fromTime": "",
				"fromTimeExtra": "",
				"id": "151",
				"identifier": "630",
				"is24Hour": true,
				"isCAC": false,
				"isFullWeek": true,
				"isSAG": false,
				"isStore": true,
				"lat": 1.30114,
				"long": 103.84965,
				"name": "PEACE CENTRE FAIRPRICE EXPRESS",
				"phone": "+6563345819",
				"postalCode": "228149",
				"serviceType": "",
				"sngBusinessHours": "",
				"storeType": "Click and Collect",
				"toTime": "",
				"toTimeExtra": "",
				"zoneId": "Central"
			},
			{
				"active": 1,
				"address": "110/114 MacPherson Road,348501",
				"address1": "110/114 MacPherson Road,348501",
				"address2": "",
				"address3": "",
				"fax": "",
				"fromTime": "",
				"fromTimeExtra": "",
				"id": "152",
				"identifier": "605",
				"is24Hour": true,
				"isCAC": true,
				"isFullWeek": true,
				"isSAG": false,
				"isStore": true,
				"lat": 1.32869,
				"long": 103.87188,
				"name": "MACPHERSON FAIRPRICE EXPRESS",
				"phone": "+6568464381",
				"postalCode": "348501",
				"serviceType": "",
				"sngBusinessHours": "",
				"storeType": "Click and Collect",
				"toTime": "",
				"toTimeExtra": "",
				"zoneId": "Central"
			},
			{
				"active": 1,
				"address": "#B1-01/02,Sun Plaza,30 Sembawang Drive,757713",
				"address1": "#B1-01/02,Sun Plaza,30 Sembawang Drive,757713",
				"address2": "Sun Plaza",
				"address3": "#B1-01/02",
				"fax": "65551187",
				"fromTime": "08:00:00",
				"fromTimeExtra": "08:00:00",
				"id": "153",
				"identifier": "355",
				"is24Hour": false,
				"isCAC": false,
				"isFullWeek": true,
				"isSAG": false,
				"isStore": true,
				"lat": 1.44842,
				"long": 103.81917,
				"name": "SUN PLAZA",
				"phone": "+6565551180",
				"postalCode": "775713",
				"serviceType": "STL",
				"sngBusinessHours": "",
				"storeType": "Click and Collect",
				"toTime": "23:00:00",
				"toTimeExtra": "23:00:00",
				"zoneId": "Central"
			},
			{
				"active": 1,
				"address": "#01-06,VISTA POINT,Block 548 Woodlands Drive 44,730548",
				"address1": "#01-06,VISTA POINT,Block 548 Woodlands Drive 44,730548",
				"address2": "",
				"address3": "#01-75",
				"fax": "",
				"fromTime": "",
				"fromTimeExtra": "",
				"id": "154",
				"identifier": "907",
				"is24Hour": true,
				"isCAC": false,
				"isFullWeek": true,
				"isSAG": false,
				"isStore": true,
				"lat": 1.43136,
				"long": 103.79389,
				"name": "VISTA POINT CHEERS",
				"phone": "+6568911690",
				"postalCode": "730548",
				"serviceType": "STL",
				"sngBusinessHours": "",
				"storeType": "Click and Collect",
				"toTime": "",
				"toTimeExtra": "",
				"zoneId": "North"
			},
			{
				"active": 1,
				"address": "399 Toa Payoh Lorong 2,319640",
				"address1": "399 Toa Payoh Lorong 2,319640",
				"address2": "",
				"address3": "",
				"fax": "",
				"fromTime": "",
				"fromTimeExtra": "",
				"id": "155",
				"identifier": "620",
				"is24Hour": true,
				"isCAC": true,
				"isFullWeek": true,
				"isSAG": false,
				"isStore": true,
				"lat": 1.33632,
				"long": 103.84626,
				"name": "TOA PAYOH 2 FAIRPRICE EXPRESS",
				"phone": "+6562513075",
				"postalCode": "319640",
				"serviceType": "CAC",
				"sngBusinessHours": "",
				"storeType": "Click and Collect",
				"toTime": "",
				"toTimeExtra": "",
				"zoneId": "Central"
			},
			{
				"active": 1,
				"address": "17 Petir Road, #B2-67, 678278",
				"address1": "#B2-67,Hillion Mall,17 Petir Road,678278",
				"address2": "Hillion Mall",
				"address3": "#B2-67",
				"fax": "67690618",
				"fromTime": "00:00:00",
				"fromTimeExtra": "00:00:00",
				"id": "156",
				"identifier": "498",
				"is24Hour": false,
				"isCAC": false,
				"isFullWeek": true,
				"isSAG": true,
				"isStore": false,
				"lat": 1.3787,
				"long": 103.76306,
				"name": "Hillion Mall",
				"phone": "+6567694868",
				"postalCode": "678278",
				"serviceType": "",
				"sngBusinessHours": "",
				"storeType": "FairPrice",
				"toTime": "23:59:59",
				"toTimeExtra": "23:59:59",
				"zoneId": "West"
			},
			{
				"active": 1,
				"address": "955 Upper Changi Road North,507662",
				"address1": "955 Upper Changi Road North,507662",
				"address2": "",
				"address3": "",
				"fax": "",
				"fromTime": "",
				"fromTimeExtra": "",
				"id": "157",
				"identifier": "616",
				"is24Hour": true,
				"isCAC": false,
				"isFullWeek": true,
				"isSAG": false,
				"isStore": true,
				"lat": 1.35971,
				"long": 103.96978,
				"name": "UPPER CHANGI RD FAIRPRICE EXPRESS",
				"phone": "+6562140937",
				"postalCode": "507662",
				"serviceType": "",
				"sngBusinessHours": "",
				"storeType": "Click and Collect",
				"toTime": "",
				"toTimeExtra": "",
				"zoneId": "East"
			},
			{
				"active": 1,
				"address": "#01-05,No. 2 College Avenue West #01-05,138607",
				"address1": "#01-05,No. 2 College Avenue West #01-05,138607",
				"address2": "",
				"address3": "#01-05",
				"fax": "",
				"fromTime": "07:30:00",
				"fromTimeExtra": "07:30:00",
				"id": "158",
				"identifier": "820",
				"is24Hour": false,
				"isCAC": true,
				"isFullWeek": true,
				"isSAG": false,
				"isStore": true,
				"lat": 1.30597,
				"long": 103.77294,
				"name": "NUS FAIRPRICE EXPRESS",
				"phone": "+6566944957",
				"postalCode": "138607",
				"serviceType": "",
				"sngBusinessHours": "",
				"storeType": "Click and Collect",
				"toTime": "21:00:00",
				"toTimeExtra": "21:00:00",
				"zoneId": "West"
			},
			{
				"active": 1,
				"address": "31 Choa Chu Kang Way,688786",
				"address1": "31 Choa Chu Kang Way,688786",
				"address2": "",
				"address3": "",
				"fax": "",
				"fromTime": "",
				"fromTimeExtra": "",
				"id": "159",
				"identifier": "618",
				"is24Hour": true,
				"isCAC": true,
				"isFullWeek": true,
				"isSAG": false,
				"isStore": true,
				"lat": 1.37783,
				"long": 103.7501,
				"name": "CHOA CHU KANG FAIRPRICE EXPRESS",
				"phone": "+6567636030",
				"postalCode": "688786",
				"serviceType": "CAC",
				"sngBusinessHours": "",
				"storeType": "Click and Collect",
				"toTime": "",
				"toTimeExtra": "",
				"zoneId": "West"
			},
			{
				"active": 1,
				"address": "384 Lorong Chuan,556810",
				"address1": "384 Lorong Chuan,556810",
				"address2": "",
				"address3": "",
				"fax": "62892783",
				"fromTime": "",
				"fromTimeExtra": "",
				"id": "160",
				"identifier": "621",
				"is24Hour": true,
				"isCAC": true,
				"isFullWeek": true,
				"isSAG": false,
				"isStore": true,
				"lat": 1.36237,
				"long": 103.86811,
				"name": "LORONG CHUAN FAIRPRICE EXPRESS",
				"phone": "+6562897350",
				"postalCode": "556810",
				"serviceType": "",
				"sngBusinessHours": "",
				"storeType": "Click and Collect",
				"toTime": "",
				"toTimeExtra": "",
				"zoneId": "North-East"
			},
			{
				"active": 1,
				"address": "160 Yio Chu Kang Road,545614",
				"address1": "160 Yio Chu Kang Road,545614",
				"address2": "Jurong Point",
				"address3": "#B1-09",
				"fax": "",
				"fromTime": "",
				"fromTimeExtra": "",
				"id": "161",
				"identifier": "634",
				"is24Hour": true,
				"isCAC": false,
				"isFullWeek": true,
				"isSAG": false,
				"isStore": true,
				"lat": 1.36089,
				"long": 103.87369,
				"name": "YIO CHU KANG RD CHEERS 160",
				"phone": "+656288088",
				"postalCode": "545614",
				"serviceType": "STL",
				"sngBusinessHours": "",
				"storeType": "Click and Collect",
				"toTime": "",
				"toTimeExtra": "",
				"zoneId": "North-East"
			},
			{
				"active": 1,
				"address": "#01-35,Blk 399 Yung Sheng Rd,610339",
				"address1": "",
				"address2": "",
				"address3": "",
				"fax": "62663044",
				"fromTime": "",
				"fromTimeExtra": "",
				"id": "162",
				"identifier": "363",
				"is24Hour": true,
				"isCAC": true,
				"isFullWeek": true,
				"isSAG": false,
				"isStore": true,
				"lat": 1.33482,
				"long": 103.72045,
				"name": "TAMAN JURONG SHOPPING CENTRE",
				"phone": "+6562664822",
				"postalCode": "610339",
				"serviceType": "",
				"sngBusinessHours": "",
				"storeType": "Click and Collect",
				"toTime": "",
				"toTimeExtra": "",
				"zoneId": "West"
			},
			{
				"active": 1,
				"address": "Blk 745 Bedok Reservoir Rd, #01-3015, 470745 ",
				"address1": "#01-3015,Blk 745 Bedok Reservoir Road,470745",
				"address2": "",
				"address3": "#01-3015",
				"fax": "",
				"fromTime": "00:00:00",
				"fromTimeExtra": "00:00:00",
				"id": "163",
				"identifier": "311",
				"is24Hour": false,
				"isCAC": false,
				"isFullWeek": true,
				"isSAG": true,
				"isStore": false,
				"lat": 1.33745,
				"long": 103.92229,
				"name": "Bedok Reservoir Rd",
				"phone": "+6564451072",
				"postalCode": "470745",
				"serviceType": "",
				"sngBusinessHours": "",
				"storeType": "FairPrice",
				"toTime": "23:59:59",
				"toTimeExtra": "23:59:59",
				"zoneId": "East"
			},
			{
				"active": 1,
				"address": "594 Upper Thomson Road,574420",
				"address1": "594 Upper Thomson Road,574420",
				"address2": "",
				"address3": "",
				"fax": "",
				"fromTime": "",
				"fromTimeExtra": "",
				"id": "164",
				"identifier": "655",
				"is24Hour": true,
				"isCAC": false,
				"isFullWeek": true,
				"isSAG": false,
				"isStore": true,
				"lat": 1.37308,
				"long": 103.82894,
				"name": "UPPER THOMSON CHEERS",
				"phone": "+6564539336",
				"postalCode": "574420",
				"serviceType": "",
				"sngBusinessHours": "",
				"storeType": "Click and Collect",
				"toTime": "",
				"toTimeExtra": "",
				"zoneId": "North-East"
			},
			{
				"active": 1,
				"address": "1 Joo Koon Cir, Singapore 629117",
				"address1": "",
				"address2": "",
				"address3": "",
				"fax": "",
				"fromTime": "08:00:00",
				"fromTimeExtra": "08:00:00",
				"id": "165",
				"identifier": "004",
				"is24Hour": false,
				"isCAC": false,
				"isFullWeek": true,
				"isSAG": false,
				"isStore": false,
				"lat": 1.3262422,
				"long": 103.6783524,
				"name": "Fairprice PFC",
				"phone": "",
				"postalCode": "629117",
				"serviceType": "",
				"sngBusinessHours": "",
				"storeType": "",
				"toTime": "23:00:00",
				"toTimeExtra": "23:00:00",
				"zoneId": "West"
			},
			{
				"active": 1,
				"address": "107 North Bridge Rd, #B1-10, 179105",
				"address1": "#B1-10, 107 North Bridge Rd, Singapore 179105",
				"address2": "",
				"address3": "#B1-10",
				"fax": "+6563210421",
				"fromTime": "10:00:00",
				"fromTimeExtra": "10:00:00",
				"id": "166",
				"identifier": "333",
				"is24Hour": false,
				"isCAC": false,
				"isFullWeek": true,
				"isSAG": true,
				"isStore": false,
				"lat": 1.2913721204191,
				"long": 103.8500846141556,
				"name": "Funan Mall",
				"phone": "+6563210420",
				"postalCode": "179105",
				"serviceType": "STL",
				"sngBusinessHours": "",
				"storeType": "FairPrice Finest",
				"toTime": "22:00:00",
				"toTimeExtra": "22:00:00",
				"zoneId": "Central"
			},
			{
				"active": 1,
				"address": "1 HarbourFront Walk, #B2-23/#01-23, VivoCity, 098585",
				"address1": "1 Harbourfront Walk, Singapore 098585",
				"address2": "",
				"address3": "",
				"fax": "+6562610829",
				"fromTime": "08:00:00",
				"fromTimeExtra": "08:00:00",
				"id": "167",
				"identifier": "330",
				"is24Hour": false,
				"isCAC": true,
				"isFullWeek": true,
				"isSAG": true,
				"isStore": false,
				"lat": 1.2643737,
				"long": 103.8223184,
				"name": "VivoCity",
				"phone": "+6562610803",
				"postalCode": "98585",
				"serviceType": "",
				"sngBusinessHours": "",
				"storeType": "FairPrice Xtra",
				"toTime": "23:00:00",
				"toTimeExtra": "23:00:00",
				"zoneId": ""
			},
			{
				"active": 1,
				"address": "900 South Woodlands Drive #B1-01, Woodlands Civic Centre, 730900",
				"address1": "#B1-01,900 South Woodlands Drive,730900",
				"address2": "",
				"address3": "",
				"fax": "62193654",
				"fromTime": "07:00:00",
				"fromTimeExtra": "07:00:00",
				"id": "168",
				"identifier": "412",
				"is24Hour": false,
				"isCAC": false,
				"isFullWeek": true,
				"isSAG": true,
				"isStore": false,
				"lat": 1.4349450146106,
				"long": 103.7870853992324,
				"name": "Woodlands Civic Centre",
				"phone": "+6562192812",
				"postalCode": "730900",
				"serviceType": "",
				"sngBusinessHours": "",
				"storeType": "FairPrice",
				"toTime": "23:00:00",
				"toTimeExtra": "23:00:00",
				"zoneId": "North"
			},
			{
				"active": 1,
				"address": "Blk 192 Toa Payoh Lorong 4, #01-670/672, 310192",
				"address1": "#01-670/672, Blk 192 Toa Payoh Lorong 4, 310192",
				"address2": "",
				"address3": "#01-670/672",
				"fax": "",
				"fromTime": "08:00:00",
				"fromTimeExtra": "08:00:00",
				"id": "169",
				"identifier": "364",
				"is24Hour": false,
				"isCAC": false,
				"isFullWeek": true,
				"isSAG": true,
				"isStore": false,
				"lat": 1.33166,
				"long": 103.85047,
				"name": "Toa Payoh Lorong 4",
				"phone": "+6562508019",
				"postalCode": "310192",
				"serviceType": "",
				"sngBusinessHours": "",
				"storeType": "FairPrice",
				"toTime": "23:00:00",
				"toTimeExtra": "23:00:00",
				"zoneId": "Central"
			},
			{
				"active": 1,
				"address": "1 Harbourfront Walk, Singapore 098585",
				"address1": "",
				"address2": "",
				"address3": "",
				"fax": "+6562610829",
				"fromTime": "08:00:00",
				"fromTimeExtra": "08:00:00",
				"id": "170",
				"identifier": "330",
				"is24Hour": false,
				"isCAC": false,
				"isFullWeek": true,
				"isSAG": false,
				"isStore": false,
				"lat": 1.2643737,
				"long": 103.8223184,
				"name": "Hyper VivoCity (FFS)",
				"phone": "+6562610803",
				"postalCode": "98585",
				"serviceType": "",
				"sngBusinessHours": "",
				"storeType": "FairPrice Xtra",
				"toTime": "23:00:00",
				"toTimeExtra": "23:00:00",
				"zoneId": ""
			},
			{
				"active": 1,
				"address": "2 Serangoon Road,#B1/06-09,Tekka Place, 218227",
				"address1": "2 Serangoon Road",
				"address2": "Tekka Place",
				"address3": "#B1/06-09",
				"fax": "62020451",
				"fromTime": "09:00:00",
				"fromTimeExtra": "09:00:00",
				"id": "172",
				"identifier": "328",
				"is24Hour": false,
				"isCAC": false,
				"isFullWeek": true,
				"isSAG": true,
				"isStore": false,
				"lat": 1.3049594433254,
				"long": 103.8515013309341,
				"name": "Tekka Place",
				"phone": "62020450",
				"postalCode": "218227",
				"serviceType": "",
				"sngBusinessHours": "",
				"storeType": "FairPrice",
				"toTime": "22:00:00",
				"toTimeExtra": "22:00:00",
				"zoneId": "Central"
			},
			{
				"active": 1,
				"address": "#B1 -21/22 \u0026 B3 -01,50 Jurong Gateway Road,608549",
				"address1": "",
				"address2": "",
				"address3": "",
				"fax": "63390385",
				"fromTime": "09:00:00",
				"fromTimeExtra": "09:00:00",
				"id": "173",
				"identifier": "469",
				"is24Hour": false,
				"isCAC": false,
				"isFullWeek": true,
				"isSAG": true,
				"isStore": false,
				"lat": 1.3331741675268,
				"long": 103.7445723863464,
				"name": "FairPrice Xtra JEM",
				"phone": "+6563391729",
				"postalCode": "608549",
				"serviceType": "",
				"sngBusinessHours": "",
				"storeType": "FairPrice Xtra",
				"toTime": "21:00:00",
				"toTimeExtra": "21:00:00",
				"zoneId": "West"
			},
			{
				"active": 1,
				"address": "B1-01,Oasis Terraces,681 Punggol Drive Oasis Terraces,820681",
				"address1": "",
				"address2": "",
				"address3": "",
				"fax": "",
				"fromTime": "09:00:00",
				"fromTimeExtra": "09:00:00",
				"id": "174",
				"identifier": "351",
				"is24Hour": false,
				"isCAC": false,
				"isFullWeek": true,
				"isSAG": true,
				"isStore": false,
				"lat": 1.4024626951977,
				"long": 103.9127790780884,
				"name": "PUNGGOL DRIVE OASIS",
				"phone": "+6562444081",
				"postalCode": "820681",
				"serviceType": "",
				"sngBusinessHours": "",
				"storeType": "FairPrice",
				"toTime": "21:00:00",
				"toTimeExtra": "21:00:00",
				"zoneId": "North-East"
			},
			{
				"active": 1,
				"address": "51, Upper Serangoon road, #01-30 to 32, 41 to 49, The POIZ Centre S(347697)",
				"address1": "51, Upper Serangoon road",
				"address2": "The POIZ Centre",
				"address3": "#01-30 to 32, 41 to 49",
				"fax": "",
				"fromTime": "00:00:00",
				"fromTimeExtra": "00:00:00",
				"id": "175",
				"identifier": "322",
				"is24Hour": false,
				"isCAC": false,
				"isFullWeek": true,
				"isSAG": true,
				"isStore": false,
				"lat": 1.3316993514592,
				"long": 103.8685655446869,
				"name": "POIZ",
				"phone": "",
				"postalCode": "347697",
				"serviceType": "",
				"sngBusinessHours": "",
				"storeType": "FairPrice",
				"toTime": "23:59:59",
				"toTimeExtra": "23:59:59",
				"zoneId": "Central"
			},
			{
				"active": 1,
				"address": "10 Paya Lebar Road, #B2-09 Paya Lebar Quarter, Singapore, 409057",
				"address1": "10 Paya Lebar Road",
				"address2": "Paya Lebar Quarter",
				"address3": "#B2-09",
				"fax": "",
				"fromTime": "07:00:00",
				"fromTimeExtra": "07:00:00",
				"id": "176",
				"identifier": "350",
				"is24Hour": false,
				"isCAC": false,
				"isFullWeek": true,
				"isSAG": true,
				"isStore": false,
				"lat": 1.3188013770769,
				"long": 103.8928234430176,
				"name": "Paya Lebar Quarter",
				"phone": "",
				"postalCode": "409057",
				"serviceType": "",
				"sngBusinessHours": "",
				"storeType": "FairPrice Finest",
				"toTime": "23:00:00",
				"toTimeExtra": "23:00:00",
				"zoneId": "Central"
			},
			{
				"active": 1,
				"address": "78 Airport Boulevard #B2-205 to 208 Jewel Changi Airport, 819666",
				"address1": "78 Airport Boulevard",
				"address2": "Jewel Changi Airport",
				"address3": "#B2-205 to 208",
				"fax": "",
				"fromTime": "10:00:00",
				"fromTimeExtra": "10:00:00",
				"id": "177",
				"identifier": "354",
				"is24Hour": false,
				"isCAC": false,
				"isFullWeek": true,
				"isSAG": true,
				"isStore": false,
				"lat": 1.3606323988282,
				"long": 103.9898121209961,
				"name": "Jewel Changi Airport",
				"phone": "",
				"postalCode": "819666",
				"serviceType": "",
				"sngBusinessHours": "",
				"storeType": "FairPrice Finest",
				"toTime": "23:00:00",
				"toTimeExtra": "23:00:00",
				"zoneId": "East"
			},
			{
				"active": 1,
				"address": "133 Canberra View, #B1-03/04, Singapore 750133\n",
				"address1": "",
				"address2": "",
				"address3": "",
				"fax": "",
				"fromTime": "08:00:00",
				"fromTimeExtra": "08:00:00",
				"id": "178",
				"identifier": "370",
				"is24Hour": false,
				"isCAC": false,
				"isFullWeek": true,
				"isSAG": true,
				"isStore": false,
				"lat": 1.442580297656,
				"long": 103.8310852724914,
				"name": "Canberra Plaza",
				"phone": "",
				"postalCode": "750133",
				"serviceType": "",
				"sngBusinessHours": "",
				"storeType": "FairPrice",
				"toTime": "23:00:00",
				"toTimeExtra": "23:00:00",
				"zoneId": "North"
			},
			{
				"active": 1,
				"address": "12 Alexandra View #01-18 Singapore 158736",
				"address1": "",
				"address2": "",
				"address3": "",
				"fax": "",
				"fromTime": "00:00:00",
				"fromTimeExtra": "00:00:00",
				"id": "179",
				"identifier": "343",
				"is24Hour": false,
				"isCAC": false,
				"isFullWeek": true,
				"isSAG": true,
				"isStore": false,
				"lat": 1.2900040910666,
				"long": 103.8165833230316,
				"name": "Artra",
				"phone": "",
				"postalCode": "158736",
				"serviceType": "",
				"sngBusinessHours": "",
				"storeType": "FairPrice Finest",
				"toTime": "23:59:59",
				"toTimeExtra": "23:59:59",
				"zoneId": "Central"
			},
			{
				"active": 1,
				"address": "4 Bukit Batok Street 41 #01-91/92 Singapore 657991",
				"address1": "",
				"address2": "",
				"address3": "",
				"fax": "63308182",
				"fromTime": "00:00:00",
				"fromTimeExtra": "00:00:00",
				"id": "180",
				"identifier": "323",
				"is24Hour": false,
				"isCAC": false,
				"isFullWeek": true,
				"isSAG": true,
				"isStore": false,
				"lat": 1.356256,
				"long": 103.741274,
				"name": "LeQuest",
				"phone": "+6563308180",
				"postalCode": "657991",
				"serviceType": "",
				"sngBusinessHours": "",
				"storeType": "FairPrice Finest",
				"toTime": "23:59:59",
				"toTimeExtra": "23:59:59",
				"zoneId": "West"
			},
			{
				"active": 1,
				"address": "12 Alexandra View #01-18 Singapore 158736",
				"address1": "",
				"address2": "",
				"address3": "",
				"fax": "63390806",
				"fromTime": "08:00:00",
				"fromTimeExtra": "08:00:00",
				"id": "181",
				"identifier": "343",
				"is24Hour": false,
				"isCAC": false,
				"isFullWeek": true,
				"isSAG": false,
				"isStore": false,
				"lat": 1.2903044223209,
				"long": 103.8167442555725,
				"name": "Artra (CNC)",
				"phone": "+6563390802",
				"postalCode": "158736",
				"serviceType": "",
				"sngBusinessHours": "",
				"storeType": "FairPrice Finest",
				"toTime": "23:00:00",
				"toTimeExtra": "23:00:00",
				"zoneId": "Central"
			},
			{
				"active": 1,
				"address": "4 Bukit Batok Street 41 #01-91/92 Singapore 657991",
				"address1": "",
				"address2": "",
				"address3": "",
				"fax": "63308182",
				"fromTime": "08:00:00",
				"fromTimeExtra": "08:00:00",
				"id": "182",
				"identifier": "323",
				"is24Hour": false,
				"isCAC": false,
				"isFullWeek": true,
				"isSAG": false,
				"isStore": false,
				"lat": 1.3561941,
				"long": 103.7384951,
				"name": "LeQuest (CNC)",
				"phone": "+6563308180",
				"postalCode": "657991",
				"serviceType": "",
				"sngBusinessHours": "",
				"storeType": "FairPrice Finest",
				"toTime": "23:00:00",
				"toTimeExtra": "23:00:00",
				"zoneId": "West"
			},
			{
				"active": 1,
				"address": "Singapore 279621",
				"address1": "",
				"address2": "",
				"address3": "",
				"fax": "",
				"fromTime": "",
				"fromTimeExtra": "",
				"id": "183",
				"identifier": "1111",
				"is24Hour": true,
				"isCAC": false,
				"isFullWeek": true,
				"isSAG": false,
				"isStore": false,
				"lat": 1.312055,
				"long": 103.78889,
				"name": "Community Chest (Donation)",
				"phone": "",
				"postalCode": "279621",
				"serviceType": "",
				"sngBusinessHours": "",
				"storeType": "",
				"toTime": "",
				"toTimeExtra": "",
				"zoneId": "Central"
			},
			{
				"active": 1,
				"address": "80 Marine Parade Rd, Singapore 449269",
				"address1": "",
				"address2": "",
				"address3": "",
				"fax": "",
				"fromTime": "00:00:00",
				"fromTimeExtra": "00:00:00",
				"id": "184",
				"identifier": "393",
				"is24Hour": false,
				"isCAC": false,
				"isFullWeek": true,
				"isSAG": true,
				"isStore": false,
				"lat": 1.3013366,
				"long": 103.9052333,
				"name": "Parkway Parade",
				"phone": "",
				"postalCode": "449269",
				"serviceType": "",
				"sngBusinessHours": "",
				"storeType": "FairPrice Xtra",
				"toTime": "23:59:59",
				"toTimeExtra": "23:59:59",
				"zoneId": "East"
			},
			{
				"active": 1,
				"address": "Singapore 449269",
				"address1": "",
				"address2": "",
				"address3": "",
				"fax": "",
				"fromTime": "",
				"fromTimeExtra": "",
				"id": "186",
				"identifier": "393",
				"is24Hour": true,
				"isCAC": false,
				"isFullWeek": true,
				"isSAG": false,
				"isStore": false,
				"lat": 1.301072,
				"long": 103.905281,
				"name": "Hyper Parkway (FFS)",
				"phone": "",
				"postalCode": "449269",
				"serviceType": "",
				"sngBusinessHours": "",
				"storeType": "FairPrice Xtra",
				"toTime": "",
				"toTimeExtra": "",
				"zoneId": "East"
			},
			{
				"active": 1,
				"address": "77 Robinson Rd, Singapore 068896",
				"address1": "",
				"address2": "",
				"address3": "",
				"fax": "",
				"fromTime": "",
				"fromTimeExtra": "",
				"id": "187",
				"identifier": "474",
				"is24Hour": true,
				"isCAC": false,
				"isFullWeek": true,
				"isSAG": true,
				"isStore": false,
				"lat": 1.277745,
				"long": 103.8485131,
				"name": "FairPrice Test Store",
				"phone": "",
				"postalCode": "68896",
				"serviceType": "",
				"sngBusinessHours": "",
				"storeType": "FairPrice",
				"toTime": "",
				"toTimeExtra": "",
				"zoneId": "West"
			},
			{
				"active": 1,
				"address": "",
				"address1": "",
				"address2": "",
				"address3": "",
				"fax": "",
				"fromTime": "",
				"fromTimeExtra": "",
				"id": "188",
				"identifier": "",
				"is24Hour": true,
				"isCAC": false,
				"isFullWeek": true,
				"isSAG": false,
				"isStore": false,
				"lat": 0,
				"long": 0,
				"name": "",
				"phone": "",
				"postalCode": "0",
				"serviceType": "",
				"sngBusinessHours": "",
				"storeType": "",
				"toTime": "",
				"toTimeExtra": "",
				"zoneId": ""
			},
			{
				"active": 1,
				"address": "#01-4056,712 Ang Mo Kio Ave 6,560712",
				"address1": "",
				"address2": "",
				"address3": "",
				"fax": "64564805",
				"fromTime": "",
				"fromTimeExtra": "",
				"id": "189",
				"identifier": "458",
				"is24Hour": true,
				"isCAC": false,
				"isFullWeek": true,
				"isSAG": true,
				"isStore": false,
				"lat": 1.37143,
				"long": 103.8471,
				"name": "Ang Mo Kio 712",
				"phone": "+6564564147",
				"postalCode": "560712",
				"serviceType": "",
				"sngBusinessHours": "",
				"storeType": "FairPrice Xtra",
				"toTime": "",
				"toTimeExtra": "",
				"zoneId": "North-East"
			},
			{
				"active": 1,
				"address": "453 Ang Mo Kio Ave 10, Block 453, Singapore 560453",
				"address1": "",
				"address2": "",
				"address3": "",
				"fax": "",
				"fromTime": "07:00:00",
				"fromTimeExtra": "07:00:00",
				"id": "190",
				"identifier": "401",
				"is24Hour": false,
				"isCAC": false,
				"isFullWeek": true,
				"isSAG": true,
				"isStore": false,
				"lat": 1.368633,
				"long": 103.8560114,
				"name": "Ang Mo Kio Ave 10 Blk 453",
				"phone": "",
				"postalCode": "560453",
				"serviceType": "",
				"sngBusinessHours": "",
				"storeType": "FairPrice",
				"toTime": "22:00:00",
				"toTimeExtra": "22:00:00",
				"zoneId": "North-East"
			},
			{
				"active": 1,
				"address": "8 Changi Business Park Ave 1, #01-51\u0026 #02-51, 486018",
				"address1": "",
				"address2": "",
				"address3": "",
				"fax": "66047546",
				"fromTime": "08:00:00",
				"fromTimeExtra": "08:00:00",
				"id": "191",
				"identifier": "461",
				"is24Hour": false,
				"isCAC": false,
				"isFullWeek": true,
				"isSAG": true,
				"isStore": false,
				"lat": 1.33484,
				"long": 103.96391,
				"name": "Hyper Changi",
				"phone": "+6566047548",
				"postalCode": "486018",
				"serviceType": "",
				"sngBusinessHours": "",
				"storeType": "FairPrice Xtra",
				"toTime": "23:00:00",
				"toTimeExtra": "23:00:00",
				"zoneId": "East"
			},
			{
				"active": 1,
				"address": "1 Stadium Place, #01-29 Singapore Sports Hub, 397628",
				"address1": "",
				"address2": "",
				"address3": "",
				"fax": "67027282",
				"fromTime": "",
				"fromTimeExtra": "",
				"id": "192",
				"identifier": "476",
				"is24Hour": true,
				"isCAC": false,
				"isFullWeek": true,
				"isSAG": true,
				"isStore": false,
				"lat": 1.30147,
				"long": 103.8759,
				"name": "Hyper Sports Hub",
				"phone": "+6567027281",
				"postalCode": "397628",
				"serviceType": "",
				"sngBusinessHours": "",
				"storeType": "FairPrice Xtra",
				"toTime": "",
				"toTimeExtra": "",
				"zoneId": "Central"
			},
			{
				"active": 1,
				"address": "30 Sembawang Drive, #B1-01/02 Sun Plaza, 757713",
				"address1": "",
				"address2": "",
				"address3": "",
				"fax": "",
				"fromTime": "",
				"fromTimeExtra": "",
				"id": "193",
				"identifier": "355",
				"is24Hour": true,
				"isCAC": false,
				"isFullWeek": true,
				"isSAG": true,
				"isStore": false,
				"lat": 1.44842,
				"long": 103.81917,
				"name": "SUN PLAZA",
				"phone": "",
				"postalCode": "757713",
				"serviceType": "",
				"sngBusinessHours": "",
				"storeType": "FairPrice",
				"toTime": "",
				"toTimeExtra": "",
				"zoneId": "North"
			}
		]
	}
}
